oid,collection_dt,longitude,latitude,time,Diff,address
46100025,20210807103200,126.49796,33.518425,2021-08-07 10:32:00,1209,"제주카페거리(어영마을), 제주시, 제주특별자치도, 63114, 대한민국"
46100025,20210807120230,126.415192,33.245735,2021-08-07 12:02:30,11987,"퍼시픽랜드 1주차장, 154-17, 중문관광로, 서귀포시, 제주특별자치도, 63535, 대한민국"
46100025,20210807153730,126.500105,33.488141,2021-08-07 15:37:30,5254,"문송1길, 제주시, 제주특별자치도, 63122, 대한민국"
46100025,20210807180530,126.414921,33.245206,2021-08-07 18:05:30,3420,"퍼시픽랜드 1주차장, 154-17, 중문관광로, 서귀포시, 제주특별자치도, 63535, 대한민국"
46100025,20210807193200,126.52027,33.25504,2021-08-07 19:32:00,570324,"서호동, 서귀포시, 제주특별자치도, 63566, 대한민국"
46100025,20210814100530,126.497475,33.492826,2021-08-14 10:05:30,2180,"귀아랑길, 오라삼동, 제주시, 제주특별자치도, 63122, 대한민국"
46100025,20210814113500,126.483658,33.483535,2021-08-14 11:35:00,8270,"원노형6길, 노형동, 제주시, 제주특별자치도, 63082, 대한민국"
46100025,20210814143400,126.28785,33.304517,2021-08-14 14:34:00,10249,"글로벌에듀로, 제주영어교육도시개발지구, Canons Town, 구억리, 서귀포시, 제주특별자치도, 63517, 대한민국"
46100025,20210814184600,126.344955,33.395822,2021-08-14 18:46:00,4506,"아르떼뮤지엄 ARTE MUSEUM, 478, 금가로, 상가리, 제주시, 제주특별자치도, 63038, 대한민국"
46100025,20210814205130,126.414622,33.485654,2021-08-14 20:51:30,4805,"하귀동남1길, 하귀1리, 제주시, 제주특별자치도, 63051, 대한민국"
46100025,20210814222000,126.419166,33.489606,2021-08-14 22:20:00,565200,"일주서로, 하귀1리, 제주시, 제주특별자치도, 63069, 대한민국"
46100025,20210821121100,126.251675,33.402966,2021-08-21 12:11:00,3704,"옹포리, 한림로, 옹포리, 제주시, 제주특별자치도, 63011, 대한민국"
46100025,20210821142730,126.310406,33.463196,2021-08-21 14:27:30,5066,"애월로, 애월리, 제주시, 제주특별자치도, 63043, 대한민국"
46100025,20210821155630,126.308802,33.453342,2021-08-21 15:56:30,13988,"일주서로, 곽지리, 제주시, 제주특별자치도, 63034, 대한민국"
46100025,20210821203000,126.528841,33.512756,2021-08-21 20:30:00,1222,"동문로6길, 일도일동, 제주시, 제주특별자치도, 63192, 대한민국"
46100025,20210821213500,126.844784,33.322721,2021-08-21 21:35:00,565380,"제주해비치리조트호텔, 민속해안로, 당포마을, 세화리, 서귀포시, 제주특별자치도, 63629, 대한민국"
46100025,20210828105930,126.437773,33.263757,2021-08-28 10:59:30,4153,"회수동, 서귀포시, 제주특별자치도, 63551, 대한민국"
46100025,20210828131930,126.30968,33.464555,2021-08-28 13:19:30,5493,"애월리, 제주시, 제주특별자치도, 63043, 대한민국"
46100025,20210828151930,126.348718,33.472867,2021-08-28 15:19:30,1368,"남또리횟집, 384, 애월해안로, 애월읍, 제주시, 제주특별자치도, 63046, 대한민국"
4610004e,20210807102330,126.514425,33.236749,2021-08-07 10:23:30,6372,"(주)해녀마을 해녀횟집 (Haenyeo Village Haenyeo Fish Restaurant), 법환로, 법환동, 서귀포시, 제주특별자치도, 63573, 대한민국"
4610004e,20210807124430,126.333354,33.252046,2021-08-07 12:44:30,2405,"족도, 69, 화순서서로64번길, 화순리, 안덕면, 서귀포시, 제주특별자치도, 63529, 대한민국"
4610004e,20210807133730,126.254998,33.223716,2021-08-07 13:37:30,3160,"묵찌빠분식, 63, 하모이삼로, 대정읍, 서귀포시, 제주특별자치도, 63510, 대한민국"
4610004e,20210807153130,126.520588,33.514572,2021-08-07 15:31:30,7440,"호텔띠아모, 무근성7길, 탑동, 제주시, 제주특별자치도, 63166, 대한민국"
4610004e,20210807181900,126.486321,33.503006,2021-08-07 18:19:00,569057,"다호북길, 도두이동, 제주시, 제주특별자치도, 63115, 대한민국"
4610004e,20210814084330,126.486296,33.502954,2021-08-14 08:43:30,5220,"다호북길, 도두이동, 제주시, 제주특별자치도, 63115, 대한민국"
4610004e,20210814111200,126.308992,33.455999,2021-08-14 11:12:00,2885,"일주서로, 곽지리, 제주시, 제주특별자치도, 63034, 대한민국"
4610004e,20210814122200,126.239921,33.393196,2021-08-14 12:22:00,3259,"한림로, 옹포리, 제주시, 제주특별자치도, 63011, 대한민국"
4610004e,20210814145630,126.811826,33.4911,2021-08-14 14:56:30,4206,"비자림 청소년 수련원, 비자숲길, 구좌읍, 제주시, 제주특별자치도, 대한민국"
4610004e,20210814171530,126.528044,33.512169,2021-08-14 17:15:30,3034,"중앙로13길, 일도일동, 제주시, 제주특별자치도, 63192, 대한민국"
4610004e,20210814193330,126.518217,33.252416,2021-08-14 19:33:30,574546,"공무원연금공단 제주지부, 서호중로, 서호동, 서귀포시, 제주특별자치도, 63566, 대한민국"
4610004e,20210821111600,126.22924,33.239164,2021-08-21 11:16:00,2397,"동수식당, 16-2, 일과대수로27번길, 대정읍, 서귀포시, 제주특별자치도, 63506, 대한민국"
4610004e,20210821145730,126.837092,33.524616,2021-08-21 14:57:30,2779,"비자림로, 평대리, 제주시, 제주특별자치도, 63359, 대한민국"
4610004e,20210821155330,126.873611,33.528197,2021-08-21 15:53:30,11070,"하도리, 제주시, 제주특별자치도, 63362, 대한민국"
4610004e,20210821191100,126.853539,33.525041,2021-08-21 19:11:00,1728,"농협하나로마트, 세평항로, 제주시, 제주특별자치도, 63360, 대한민국"
4610004e,20210821194930,126.873553,33.528157,2021-08-21 19:49:30,571273,"하도리, 제주시, 제주특별자치도, 63362, 대한민국"
4610004e,20210828105000,126.43151,33.251099,2021-08-28 10:50:00,1768,"대포칼제비, 338, 중문관광로, 서귀포시, 제주특별자치도, 63540, 대한민국"
4610004e,20210828115000,126.441598,33.456331,2021-08-28 11:50:00,6487,"광령리, 제주시, 제주특별자치도, 63062, 대한민국"
4610004e,20210828151030,126.486305,33.502209,2021-08-28 15:10:30,1349,"도두이동, 제주시, 제주특별자치도, 63115, 대한민국"
4610004e,20210828170000,126.803957,33.557113,2021-08-28 17:00:00,1753,"해맞이해안로, 월정리, 제주시, 제주특별자치도, 63358, 대한민국"
4610004e,20210828173730,126.839925,33.536955,2021-08-28 17:37:30,1662,"해맞이해안로, 구좌읍, 제주시, 제주특별자치도, 63359, 대한민국"
4610004e,20210828180700,126.841119,33.537594,2021-08-28 18:07:00,4725,"港口, 해맞이해안로, 구좌읍, 제주시, 제주특별자치도, 63359, 대한민국"
4610004e,20210828194830,126.856317,33.52994,2021-08-28 19:48:30,3408,"港口, 해맞이해안로, 구좌읍, 제주시, 제주특별자치도, 63361, 대한민국"
4610004e,20210828205200,126.866068,33.528706,2021-08-28 20:52:00,6546,"면수동해녀탈의장, Ollegil 21, 하도리, 제주시, 제주특별자치도, 63362, 대한민국"
4610004e,20210829011100,126.618906,33.24616,2021-08-29 01:11:00,2641,"Ollegil 6, 서귀포시, 제주특별자치도, 63600, 대한민국"
4610004e,20210829021330,126.618574,33.244634,2021-08-29 02:13:30,3004,"보목포로, 서귀포시, 제주특별자치도, 63600, 대한민국"
4610004e,20210829030600,126.621565,33.249598,2021-08-29 03:06:00,5507,"올레길6 (Ollegil 6), 서귀포시, 제주특별자치도, 63600, 대한민국"
46100082,20210807182830,126.544693,33.480695,2021-08-07 18:28:30,570064,"중앙로, 아라일동, 제주시, 제주특별자치도, 63248, 대한민국"
46100082,20210814085430,126.529065,33.491485,2021-08-14 08:54:30,22560,"도남로15길, 도남동, 제주시, 제주특별자치도, 63205, 대한민국"
46100085,20210821105454,127.1528371,37.360881,2021-08-21 10:54:54,1491,"푸주옥, 신현로, 태재, 신현동, 광주시, 경기도, 12771, 대한민국"
4610008c,20210814111300,126.997629,37.259543,2021-08-14 11:13:00,24510,"세화로, 평동, 권선구, 수원시, 경기도, 16595, 대한민국"
4610008c,20210814180430,126.998062,37.258426,2021-08-14 18:04:30,5760,"매송고색로, 평동, 권선구, 수원시, 경기도, 16599, 대한민국"
461000a0,20210807101000,126.852715,33.523475,2021-08-07 10:10:00,10470,"구좌로, 하도리, 제주시, 제주특별자치도, 63361, 대한민국"
461000a0,20210807134230,126.547152,33.241224,2021-08-07 13:42:30,6174,"남성로, 서귀포시, 제주특별자치도, 63571, 대한민국"
461000a0,20210807154730,126.566529,33.251569,2021-08-07 15:47:30,5073,"서귀동, 서귀포시, 제주특별자치도, 63590, 대한민국"
461000a0,20210807172500,126.563447,33.250293,2021-08-07 17:25:00,3360,"서귀포매일올레시장, 중앙로54번길, 서귀동, 서귀포시, 제주특별자치도, 63590, 대한민국"
461000a0,20210807182930,126.566486,33.251473,2021-08-07 18:29:30,573330,"서귀동, 서귀포시, 제주특별자치도, 63590, 대한민국"
461000a0,20210814103330,126.802988,33.557168,2021-08-14 10:33:30,3286,"해맞이해안로, 월정리, 제주시, 제주특별자치도, 63358, 대한민국"
461000a0,20210814114100,126.803982,33.556959,2021-08-14 11:41:00,1488,"해난디아장 카페, 564, 해맞이해안로, 월정리, 제주시, 제주특별자치도, 63358, 대한민국"
461000a0,20210814125230,126.928066,33.431729,2021-08-14 12:52:30,7453,"신양리, 서귀포시, 제주특별자치도, 63641, 대한민국"
461000a0,20210814162430,126.590786,33.244337,2021-08-14 16:24:30,7530,"보목로64번길, 서귀포시, 제주특별자치도, 63596, 대한민국"
461000a0,20210814184330,126.548139,33.241654,2021-08-14 18:43:30,3252,"남성로, 서귀포시, 제주특별자치도, 63571, 대한민국"
461000a0,20210814194900,126.560597,33.247194,2021-08-14 19:49:00,7045,"태평로 353번길, 서귀동, 서귀포시, 제주특별자치도, 63592, 대한민국"
461000a0,20210814215300,126.590786,33.244457,2021-08-14 21:53:00,561344,"보목로64번길, 서귀포시, 제주특별자치도, 63596, 대한민국"
461000a0,20210821101900,126.455412,33.493169,2021-08-21 10:19:00,606990,"이호이동, 현사마을, 제주시, 제주특별자치도, 63108, 대한민국"
461000a0,20210828111400,126.5239,33.480452,2021-08-28 11:14:00,2045,"연북로, 제주시, 제주특별자치도, 63235, 대한민국"
461000a0,20210828123500,126.309167,33.464243,2021-08-28 12:35:00,11193,"애월리, 제주시, 제주특별자치도, 63043, 대한민국"
461000ab,20210807101130,126.92048,33.436619,2021-08-07 10:11:30,3001,"사진술, 34, 신양로, 신양리, 서귀포시, 제주특별자치도, 63641, 대한민국"
461000ab,20210807114600,126.935899,33.465659,2021-08-07 11:46:00,2340,"쿠모, 269-37, 한도로, 성산리, 서귀포시, 제주특별자치도, 63643, 대한민국"
461000ab,20210807130030,126.772537,33.530358,2021-08-07 13:00:30,4723,"만장굴길, 제주시, 제주특별자치도, 63358, 대한민국"
461000ab,20210807160730,126.519591,33.511898,2021-08-07 16:07:30,1871,"용담일동, 제주시, 제주특별자치도, 63168, 대한민국"
461000ab,20210807173400,126.479535,33.498214,2021-08-07 17:34:00,2744,"제성1길, 도두이동, 제주시, 제주특별자치도, 63095, 대한민국"
461000ab,20210807183030,126.497217,33.485388,2021-08-07 18:30:30,4286,"비월길, 제주시, 제주특별자치도, 63122, 대한민국"
461000ab,20210807200230,126.409424,33.476068,2021-08-07 20:02:30,2167,"항몽로, 하귀2리, 제주시, 제주특별자치도, 63051, 대한민국"
461000ab,20210807210100,126.480739,33.485034,2021-08-07 21:01:00,1590,"원노형2길, 노형동, 제주시, 제주특별자치도, 63087, 대한민국"
461000ab,20210807220230,126.409184,33.476013,2021-08-07 22:02:30,565320,"항몽로, 하귀2리, 제주시, 제주특별자치도, 63051, 대한민국"
461000ab,20210814124930,126.585556,33.524827,2021-08-14 12:49:30,7958,"설촌로12길, 삼양이동, 제주시, 제주특별자치도, 63318, 대한민국"
461000ab,20210814155030,126.479426,33.498116,2021-08-14 15:50:30,11796,"제성1길, 도두이동, 제주시, 제주특별자치도, 63095, 대한민국"
461000ab,20210814190730,126.47937,33.498055,2021-08-14 19:07:30,580193,"제성1길, 도두이동, 제주시, 제주특별자치도, 63095, 대한민국"
461000ab,20210821123300,126.478289,33.488008,2021-08-21 12:33:00,2259,"월랑로4길, 제주시, 제주특별자치도, 63097, 대한민국"
461000ab,20210821144900,126.414462,33.490149,2021-08-21 14:49:00,7474,"하귀1리, 제주시, 제주특별자치도, 대한민국"
461000ab,20210821180400,126.527481,33.498371,2021-08-21 18:04:00,1892,"이도일동, 제주시, 제주특별자치도, 63199, 대한민국"
461000ab,20210821184700,126.531292,33.498592,2021-08-21 18:47:00,2542,"광양13길, 제주시, 제주특별자치도, 63209, 대한민국"
461000ab,20210821200130,126.479506,33.498018,2021-08-21 20:01:30,20952,"제성1길, 도두이동, 제주시, 제주특별자치도, 63095, 대한민국"
461000ab,20210822020700,126.471044,33.492458,2021-08-22 02:07:00,6921,"에스중앙병원, 월랑로, 제주시, 제주특별자치도, 63097, 대한민국"
461000ab,20210822045930,126.471049,33.492457,2021-08-22 04:59:30,540060,"에스중앙병원, 월랑로, 제주시, 제주특별자치도, 63097, 대한민국"
461000ab,20210828111730,126.805864,33.556955,2021-08-28 11:17:30,2586,"올레길 20, 제주시, 제주특별자치도, 63358, 대한민국"
461000ab,20210828132100,126.666623,33.446778,2021-08-28 13:21:00,9998,"에코랜드 테마파크, 남조로, 교래리, 제주시, 제주특별자치도, 63343, 대한민국"
461000ab,20210828164330,126.914753,33.447785,2021-08-28 16:43:30,1730,"고성리, 서귀포시, 제주특별자치도, 63640, 대한민국"
461000ab,20210828172500,126.911056,33.47301,2021-08-28 17:25:00,13932,"카페네스카페 성산리조트점, 2670, 해맞이해안로, 오조리, 서귀포시, 제주특별자치도, 63639, 대한민국"
461000ab,20210828214600,126.911009,33.474615,2021-08-28 21:46:00,1900,"소반&카페베네(제주봄그리고가을리조트점), 2660, 해맞이해안로, 오조리, 서귀포시, 제주특별자치도, 63639, 대한민국"
461000b4,20210807125800,126.479294,33.498087,2021-08-07 12:58:00,3706,"제성1길, 도두이동, 제주시, 제주특별자치도, 63095, 대한민국"
461000b4,20210807154300,126.239305,33.392862,2021-08-07 15:43:00,2723,"한림로, 옹포리, 제주시, 제주특별자치도, 63011, 대한민국"
461000b4,20210807164030,126.263228,33.392174,2021-08-07 16:40:30,3930,"명재로, 한림읍, 제주시, 제주특별자치도, 63014, 대한민국"
461000b4,20210807181630,126.17997,33.308213,2021-08-07 18:16:30,3397,"한경면, 제주시, 제주특별자치도, 63008, 대한민국"
461000b4,20210807201330,126.348825,33.471765,2021-08-07 20:13:30,589002,"고내리, 제주시, 제주특별자치도, 63046, 대한민국"
461000b4,20210814155130,126.479323,33.498244,2021-08-14 15:51:30,7463,"제성1길, 도두이동, 제주시, 제주특별자치도, 63095, 대한민국"
461000b4,20210814185518,126.190209,33.256625,2021-08-14 18:55:18,1705,"노을담은뜨락, 노을해안로, 영락리, 서귀포시, 제주특별자치도, 63500, 대한민국"
461000b4,20210814195600,126.431859,33.238289,2021-08-14 19:56:00,8664,"중문솥뚜껑, 81, 이어도로, 서귀포시, 제주특별자치도, 63540, 대한민국"
461000b4,20210814225500,126.190155,33.256293,2021-08-14 22:55:00,554950,"노을담은뜨락, 노을해안로, 영락리, 서귀포시, 제주특별자치도, 63500, 대한민국"
461000b4,20210821092230,126.28946,33.305312,2021-08-21 09:22:30,6786,"오설록티뮤지엄 주차장, Ollegil 14-1, 서광리, 서귀포시, 제주특별자치도, 63522, 대한민국"
461000b4,20210821114000,126.198432,33.36526,2021-08-21 11:40:00,3198,"금등리, 제주시, 제주특별자치도, 63002, 대한민국"
461000b4,20210821124430,126.265135,33.388399,2021-08-21 12:44:30,11411,"명월국민학교, 48, 명월로, 명월리, 제주시, 제주특별자치도, 63014, 대한민국"
461000b4,20210821161100,126.239152,33.337036,2021-08-21 16:11:00,4996,"수동4길, 낙천리, 제주시, 제주특별자치도, 63006, 대한민국"
461000b4,20210821181300,126.239284,33.33709,2021-08-21 18:13:00,588078,"수동4길, 낙천리, 제주시, 제주특별자치도, 63006, 대한민국"
461000b4,20210828140000,126.811789,33.557719,2021-08-28 14:00:00,3417,"해맞이해안로, 제주시, 제주특별자치도, 63359, 대한민국"
461000b4,20210828151800,126.66552,33.540155,2021-08-28 15:18:00,11434,"해피누들, 16, 함덕14길, 함덕리, 제주시, 제주특별자치도, 63333, 대한민국"
461000b4,20210828191030,126.529531,33.512305,2021-08-28 19:10:30,3929,"신산로2길, 일도일동, 제주시, 제주특별자치도, 63278, 대한민국"
461000b5,20210807094455,126.5969126,33.2435818,2021-08-07 09:44:55,2242,"자담치킨보목점, 428, 칠십리로, 보목동, 볼레낭마을, 서귀포시, 제주특별자치도, 63600, 대한민국"
461000b5,20210807110447,126.4628615,33.3578236,2021-08-07 11:04:47,1671,"1100로, 서귀포시, 제주특별자치도, 63551, 대한민국"
461000b5,20210807130554,126.5138378,33.5151278,2021-08-07 13:05:54,2131,"홍운길, 제주시, 제주특별자치도, 63167, 대한민국"
461000b5,20210807140036,126.497722,33.5176115,2021-08-07 14:00:36,1372,"제주카페거리(어영마을), 제주시, 제주특별자치도, 63114, 대한민국"
461000b5,20210807142358,126.4963228,33.5183681,2021-08-07 14:23:58,3860,"제주카페거리(어영마을), 제주시, 제주특별자치도, 63114, 대한민국"
461000b5,20210807155335,126.4977803,33.5174033,2021-08-07 15:53:35,4308,"제주카페거리(어영마을), 제주시, 제주특별자치도, 63114, 대한민국"
461000b5,20210807183203,126.2471945,33.380794,2021-08-07 18:32:03,578261,"협재리, 제주시, 제주특별자치도, 63011, 대한민국"
461000b5,20210814130221,126.2427278,33.3965575,2021-08-14 13:02:21,2986,"협재리, 제주시, 제주특별자치도, 63011, 대한민국"
461000b5,20210814135637,126.240693,33.3948235,2021-08-14 13:56:37,13169,"한림로, 옹포리, 제주시, 제주특별자치도, 63011, 대한민국"
461000b5,20210814190234,126.4977921,33.5176091,2021-08-14 19:02:34,578454,"제주카페거리(어영마을), 제주시, 제주특별자치도, 63114, 대한민국"
461000b5,20210821114328,126.4977796,33.5173533,2021-08-21 11:43:28,7215,"제주카페거리(어영마을), 제주시, 제주특별자치도, 63114, 대한민국"
461000b5,20210821141050,126.4976128,33.5176648,2021-08-21 14:10:50,10574,"제주카페거리(어영마을), 제주시, 제주특별자치도, 63114, 대한민국"
461000b5,20210821173534,126.5263851,33.5109285,2021-08-21 17:35:34,5198,"중앙로13길, 일도일동, 제주시, 제주특별자치도, 63192, 대한민국"
461000b5,20210821193345,126.4635778,33.5042668,2021-08-21 19:33:45,572124,"도두항서길, 도두일동, 제주시, 제주특별자치도, 63112, 대한민국"
461000b5,20210828111103,126.4921531,33.488773,2021-08-28 11:11:03,3837,"신대로12길, 제주시, 제주특별자치도, 63122, 대한민국"
461000b5,20210828123130,126.4929761,33.5196651,2021-08-28 12:31:30,1247,"쌍알횟집, 500, 서해안로, 용담삼동, 제주시, 제주특별자치도, 63114, 대한민국"
461000b5,20210828130724,126.4957925,33.5181903,2021-08-28 13:07:24,9544,"사랑터울펜션, 서해안로, 용담삼동, 제주시, 제주특별자치도, 63114, 대한민국"
461000b6,20210807094130,126.485239,33.462139,2021-08-07 09:41:30,5785,"1100로, 제주시, 제주특별자치도, 63142, 대한민국"
461000b6,20210807123900,126.71006,33.553525,2021-08-07 12:39:00,20939,"동복로, 동복리, 제주시, 제주특별자치도, 63357, 대한민국"
461000b6,20210807195700,126.497801,33.517488,2021-08-07 19:57:00,1371,"제주카페거리(어영마을), 제주시, 제주특별자치도, 63114, 대한민국"
461000b6,20210807202100,126.496006,33.518029,2021-08-07 20:21:00,564996,"제주카페거리(어영마을), 제주시, 제주특별자치도, 63114, 대한민국"
461000b6,20210814100600,126.669652,33.541417,2021-08-14 10:06:00,2794,"함덕해수욕장 주차장, 함덕로, 함덕리, 제주시, 제주특별자치도, 63333, 대한민국"
461000b6,20210814113130,126.70984,33.553593,2021-08-14 11:31:30,1489,"동복로, 동복리, 제주시, 제주특별자치도, 63357, 대한민국"
461000b6,20210814135230,126.429257,33.251364,2021-08-14 13:52:30,1390,"중문중학교, 천제연로, 푸른중문주공아파트, 서귀포시, 제주특별자치도, 63545, 대한민국"
461000b6,20210814142000,126.430691,33.249314,2021-08-14 14:20:00,6870,"중문관광로, 서귀포시, 제주특별자치도, 63540, 대한민국"
461000b6,20210814165100,126.562473,33.24973,2021-08-14 16:51:00,2160,"중앙로54번길, 서귀동, 서귀포시, 제주특별자치도, 63591, 대한민국"
461000b6,20210814172830,126.55872,33.247568,2021-08-14 17:28:30,2402,"제주올레 여행자센터, 22, 중정로, 서귀동, 서귀포시, 제주특별자치도, 63592, 대한민국"
461000b6,20210814183700,126.423016,33.251436,2021-08-14 18:37:00,599066,"안녕좋은하루카페, 172, 천제연로, 서귀포시, 제주특별자치도, 63545, 대한민국"
461000b6,20210821170230,126.497798,33.517508,2021-08-21 17:02:30,586277,"제주카페거리(어영마을), 제주시, 제주특별자치도, 63114, 대한민국"
461000b6,20210828115800,126.463501,33.504146,2021-08-28 11:58:00,7201,"도두항서길, 도두일동, 제주시, 제주특별자치도, 63112, 대한민국"
461000b6,20210828140200,126.911555,33.473401,2021-08-28 14:02:00,15384,"카페네스카페 성산리조트점, 2670, 해맞이해안로, 오조리, 서귀포시, 제주특별자치도, 63639, 대한민국"
461000b6,20210828182230,126.931966,33.472536,2021-08-28 18:22:30,1240,"성산등용로, 성산리, 서귀포시, 제주특별자치도, 63643, 대한민국"
461000b6,20210828190830,126.839858,33.534856,2021-08-28 19:08:30,6270,"해맞이해안로, 구좌읍, 제주시, 제주특별자치도, 63359, 대한민국"
461000b7,20210807081500,126.918779,33.442513,2021-08-07 08:15:00,6179,"호텔마레식당, 29, 섭지코지로25번길, 신양리, 서귀포시, 제주특별자치도, 63640, 대한민국"
461000b7,20210807100900,126.930576,33.46663,2021-08-07 10:09:00,1945,"엄마야누나야, 44, 성산등용로, 성산리, 서귀포시, 제주특별자치도, 63643, 대한민국"
461000b7,20210807105000,126.932755,33.472607,2021-08-07 10:50:00,16564,"스테이크8, 130-21, 성산등용로, 성산리, 서귀포시, 제주특별자치도, 63643, 대한민국"
461000b7,20210807163704,126.822878,33.351241,2021-08-07 16:37:04,1744,"제주통나무휴양펜션, 번영로, 하천리, 서귀포시, 제주특별자치도, 63629, 대한민국"
461000b7,20210807171530,126.831896,33.325094,2021-08-07 17:15:30,1433,"하나로빵이벤트, 237-2, 표선동서로, 표선리, 서귀포시, 제주특별자치도, 63629, 대한민국"
461000b7,20210807181400,126.823355,33.350905,2021-08-07 18:14:00,3940,"제주통나무휴양펜션, 번영로, 하천리, 서귀포시, 제주특별자치도, 63629, 대한민국"
461000b7,20210807192000,126.82311,33.351081,2021-08-07 19:20:00,4460,"제주통나무휴양펜션, 번영로, 하천리, 서귀포시, 제주특별자치도, 63629, 대한민국"
461000b7,20210807203420,126.822886,33.351235,2021-08-07 20:34:20,559893,"제주통나무휴양펜션, 번영로, 하천리, 서귀포시, 제주특별자치도, 63629, 대한민국"
461000b7,20210814104300,126.259613,33.26588,2021-08-14 10:43:00,2989,"중산간서로, 신평리, 서귀포시, 제주특별자치도, 63517, 대한민국"
461000b7,20210814132430,126.692614,33.36085,2021-08-14 13:24:30,6888,"서귀포시, 제주특별자치도, 대한민국"
461000b7,20210814160500,126.906858,33.40659,2021-08-14 16:05:00,4075,"삼대해녀의집, 583-5, 환해장성로, 성산읍, 서귀포시, 제주특별자치도, 63641, 대한민국"
461000b7,20210814173800,126.910595,33.472938,2021-08-14 17:38:00,576290,"오조리, 서귀포시, 제주특별자치도, 63639, 대한민국"
461000b7,20210821100500,126.845197,33.326238,2021-08-21 10:05:00,12946,"서귀포해양경찰서, 표선당산로, 당포마을, 표선리, 서귀포시, 제주특별자치도, 63629, 대한민국"
461000b7,20210821135230,126.832845,33.325982,2021-08-21 13:52:30,583605,"부어치킨, 84, 표선중앙로, 표선리, 서귀포시, 제주특별자치도, 63629, 대한민국"
461000b7,20210828083700,126.497919,33.517434,2021-08-28 08:37:00,7131,"제주카페거리(어영마을), 제주시, 제주특별자치도, 63114, 대한민국"
461000b7,20210828135700,126.279474,33.27024,2021-08-28 13:57:00,4050,"안성리, 서귀포시, 제주특별자치도, 63520, 대한민국"
461000b7,20210828162900,126.232037,33.389484,2021-08-28 16:29:00,6477,"협재리, 제주시, 제주특별자치도, 63011, 대한민국"
461000b8,20210807112530,126.622204,33.254288,2021-08-07 11:25:30,1334,"쇠소깍로, 하효동, 서귀포시, 제주특별자치도, 63600, 대한민국"
461000b8,20210807123400,126.667101,33.446238,2021-08-07 12:34:00,3816,"에코랜드 테마파크, 남조로, 교래리, 제주시, 제주특별자치도, 63343, 대한민국"
461000b8,20210807135930,126.734172,33.433824,2021-08-07 13:59:30,4843,"비자림로, 제주시, 제주특별자치도, 대한민국"
461000b8,20210807174030,126.488628,33.485955,2021-08-07 17:40:30,581266,"노연로, 제주시, 제주특별자치도, 63123, 대한민국"
461000b8,20210814113630,126.570205,33.478347,2021-08-14 11:36:30,2265,"영평동, 제주시, 제주특별자치도, 63311, 대한민국"
461000b8,20210814132430,126.559057,33.246512,2021-08-14 13:24:30,3263,"진주식당, 353, 태평로, 서귀동, 서귀포시, 제주특별자치도, 63592, 대한민국"
461000b8,20210814152330,126.438176,33.240854,2021-08-14 15:23:30,13361,"대포동서로, 서귀포시, 제주특별자치도, 63540, 대한민국"
461000b8,20210814201200,126.561964,33.242511,2021-08-14 20:12:00,3069,"천지연크리스탈호텔커피숍, 39, 천지연로, 서귀동, 서귀포시, 제주특별자치도, 63596, 대한민국"
461000b8,20210814213400,126.437963,33.240763,2021-08-14 21:34:00,2210,"대포동서로, 서귀포시, 제주특별자치도, 63540, 대한민국"
461000b8,20210814221500,126.438911,33.238374,2021-08-14 22:15:00,4608,"대포어촌계횟집, 올레길 8코스(월평-대평 올레), 월평동, 서귀포시, 제주특별자치도, 63535, 대한민국"
461000b8,20210814234400,126.438038,33.240844,2021-08-14 23:44:00,18350,"대포동서로, 서귀포시, 제주특별자치도, 63540, 대한민국"
461000b8,20210815045930,126.467012,33.252914,2021-08-15 04:59:30,540946,"일주서로, 도순동, 서귀포시, 제주특별자치도, 63561, 대한민국"
461000b8,20210821112130,126.264331,33.420454,2021-08-21 11:21:30,4669,"한림로, 한수리, 제주시, 제주특별자치도, 63032, 대한민국"
461000b8,20210821130330,126.261335,33.415446,2021-08-21 13:03:30,1406,"올레길 14, 한수리, 제주시, 제주특별자치도, 63012, 대한민국"
461000b8,20210821135600,126.30873,33.453226,2021-08-21 13:56:00,13527,"곽지모우물, 일주서로, 곽지리, 제주시, 제주특별자치도, 63034, 대한민국"
461000b8,20210821174530,126.308769,33.453299,2021-08-21 17:45:30,575266,"곽지모우물, 일주서로, 곽지리, 제주시, 제주특별자치도, 63034, 대한민국"
461000b8,20210828094700,126.491991,33.496107,2021-08-28 09:47:00,34671,"다호길, 도두이동, 제주시, 제주특별자치도, 63115, 대한민국"
461000b9,20210807142200,126.46283,33.357799,2021-08-07 14:22:00,1546,"1100로, 서귀포시, 제주특별자치도, 63551, 대한민국"
461000b9,20210807161130,126.244332,33.222746,2021-08-07 16:11:30,6322,"올레길 11코스(모슬포-무릉 올레), 제주영어교육도시개발지구, 대정읍, 신평리, 서귀포시, 제주특별자치도, 63507, 대한민국"
461000b9,20210807195100,126.49766,33.517733,2021-08-07 19:51:00,577075,"제주카페거리(어영마을), 제주시, 제주특별자치도, 63114, 대한민국"
461000b9,20210814123530,126.611459,33.465245,2021-08-14 12:35:30,3441,"제주평화양로원 입구, 명림로, 봉개동, 제주시, 제주특별자치도, 63327, 대한민국"
461000b9,20210814134130,126.629281,33.440044,2021-08-14 13:41:30,6996,"제주절물자연휴양림, 명림로, 제주시, 제주특별자치도, 63327, 대한민국"
461000b9,20210814160300,126.570205,33.478363,2021-08-14 16:03:00,4435,"영평동, 제주시, 제주특별자치도, 63311, 대한민국"
461000b9,20210814181200,126.658353,33.274263,2021-08-14 18:12:00,1866,"태위로, 위미리, 서귀포시, 제주특별자치도, 63611, 대한민국"
461000b9,20210814193200,126.507624,33.246877,2021-08-14 19:32:00,7045,"제주월드컵경기장주차장3, 월드컵로, 법환동, 서귀포시, 제주특별자치도, 63572, 대한민국"
461000b9,20210814221700,126.660699,33.274557,2021-08-14 22:17:00,565530,"위미가정의원, 올레길5 (Ollegil 5), 위미리, 서귀포시, 제주특별자치도, 63611, 대한민국"
461000b9,20210821124530,126.934782,33.468891,2021-08-21 12:45:30,9900,"더클라우드 호텔, 269-37, 한도로, 성산리, 서귀포시, 제주특별자치도, 63643, 대한민국"
461000b9,20210821160530,126.850653,33.53246,2021-08-21 16:05:30,2655,"해맞이해안로, 구좌읍, 제주시, 제주특별자치도, 63361, 대한민국"
461000b9,20210821183730,126.415393,33.24437,2021-08-21 18:37:30,5060,"퍼시픽랜드 4주차장, 154-17, 중문관광로, 서귀포시, 제주특별자치도, 63535, 대한민국"
461000b9,20210821203000,126.56224,33.25041,2021-08-21 20:30:00,1260,"애선양행, 8-19, 중앙로72번길, 서귀동, 서귀포시, 제주특별자치도, 63591, 대한민국"
461000b9,20210821210000,126.566873,33.244878,2021-08-21 21:00:00,565389,"Big Blue 33 Diving Center, 9, 소양로12번길, 서귀동, 서귀포시, 제주특별자치도, 63596, 대한민국"
461000b9,20210828103400,126.495871,33.518265,2021-08-28 10:34:00,19620,"제주카페거리(어영마을), 제주시, 제주특별자치도, 63114, 대한민국"
461000b9,20210828170430,126.912021,33.446268,2021-08-28 17:04:30,1519,"일주동로, 고성리, 서귀포시, 제주특별자치도, 63640, 대한민국"
461000b9,20210828173800,126.887475,33.448488,2021-08-28 17:38:00,1694,"수시로, 서귀포시, 제주특별자치도, 63641, 대한민국"
461000ba,20210807113200,126.333805,33.462572,2021-08-07 11:32:00,4402,"일주서로, 애월리, 제주시, 제주특별자치도, 63044, 대한민국"
461000ba,20210807131430,126.27669,33.431651,2021-08-07 13:14:30,14269,"일주서로, 대림리, 제주시, 제주특별자치도, 63024, 대한민국"
461000ba,20210807180937,126.484881,33.469889,2021-08-07 18:09:37,3531,"cafe901, 288-39 2, 1100로, 제주시, 제주특별자치도, 63142, 대한민국"
461000ba,20210807193800,126.495648,33.484404,2021-08-07 19:38:00,3652,"사장길, 제주시, 제주특별자치도, 63122, 대한민국"
461000ba,20210807205411,126.455249,33.496197,2021-08-07 20:54:11,2955,"도리로, 이호이동, 현사마을, 제주시, 제주특별자치도, 63108, 대한민국"
461000ba,20210807224519,126.48172,33.487688,2021-08-07 22:45:19,557749,"월랑로2길, 제주시, 제주특별자치도, 63081, 대한민국"
461000ba,20210814094500,126.593576,33.243384,2021-08-14 09:45:00,4416,"칠십리로, 보목동, 볼레낭마을, 서귀포시, 제주특별자치도, 63600, 대한민국"
461000ba,20210814110600,126.578275,33.246775,2021-08-14 11:06:00,2396,"서귀포시, 제주특별자치도, 63596, 대한민국"
461000ba,20210814132100,126.330486,33.250652,2021-08-14 13:21:00,5291,"안덕보건지소, 30-9, 일주서로, 화순리, 창천리, 서귀포시, 제주특별자치도, 63530, 대한민국"
461000ba,20210814152100,126.576754,33.253386,2021-08-14 15:21:00,15381,"정방연로, 서귀포시, 제주특별자치도, 63588, 대한민국"
461000ba,20210814195000,126.582718,33.24813,2021-08-14 19:50:00,3490,"상희네돈숯불구이, 289, 칠십리로, 서귀포시, 제주특별자치도, 63588, 대한민국"
461000ba,20210814210400,126.562449,33.24964,2021-08-14 21:04:00,2820,"중앙로54번길, 서귀동, 서귀포시, 제주특별자치도, 63591, 대한민국"
461000ba,20210814220300,126.582126,33.256375,2021-08-14 22:03:00,1379,"일주동로, 서귀포시, 제주특별자치도, 63588, 대한민국"
461000ba,20210814223130,126.593712,33.243826,2021-08-14 22:31:30,565520,"칠십리로, 보목동, 볼레낭마을, 서귀포시, 제주특별자치도, 63600, 대한민국"
461000ba,20210821114330,126.682181,33.491748,2021-08-21 11:43:30,2846,"와산리 사무소, 중산간동로, 와산리, 제주시, 제주특별자치도, 63343, 대한민국"
461000ba,20210821123900,126.705487,33.45889,2021-08-21 12:39:00,11245,"제주시, 제주특별자치도, 대한민국"
461000ba,20210821155300,126.708365,33.471778,2021-08-21 15:53:00,5149,"선교로, 선흘리, 제주시, 제주특별자치도, 63343, 대한민국"
461000ba,20210821172730,126.68076,33.491515,2021-08-21 17:27:30,4535,"중산간동로, 와산리, 제주시, 제주특별자치도, 63343, 대한민국"
461000ba,20210821185400,126.669726,33.5419,2021-08-21 18:54:00,3173,"함덕해수욕장 주차장, 함덕로, 함덕리, 제주시, 제주특별자치도, 63333, 대한민국"
461000ba,20210821194930,126.670977,33.537547,2021-08-21 19:49:30,568753,"함덕18길, 함덕리, 제주시, 제주특별자치도, 63333, 대한민국"
461000ba,20210828110330,126.56759,33.440074,2021-08-28 11:03:30,2575,"516로, 제주시, 제주특별자치도, 63244, 대한민국"
461000ba,20210828122033,126.66382,33.469818,2021-08-28 12:20:33,2144,"번영로, 제주시, 제주특별자치도, 63343, 대한민국"
461000ba,20210828131800,126.794252,33.441027,2021-08-28 13:18:00,3316,"금백조로, 수산리, 제주시, 제주특별자치도, 63631, 대한민국"
461000ba,20210828145230,126.668286,33.542499,2021-08-28 14:52:30,4520,"함덕리, 제주시, 제주특별자치도, 63333, 대한민국"
461000ba,20210828165100,126.778097,33.563361,2021-08-28 16:51:00,3455,"월정서로, 월정리, 제주시, 제주특별자치도, 63358, 대한민국"
461000ba,20210828174900,126.7781,33.563366,2021-08-28 17:49:00,4682,"월정서로, 월정리, 제주시, 제주특별자치도, 63358, 대한민국"
461000ba,20210828194300,126.670356,33.53919,2021-08-28 19:43:00,3834,"함덕리, 제주시, 제주특별자치도, 63333, 대한민국"
461000ba,20210828205030,126.668472,33.542319,2021-08-28 20:50:30,1606,"함덕국민학교옛터 공영주차장, 신북로, 신흥리, 제주시, 제주특별자치도, 63333, 대한민국"
461000bf,20210807181300,126.918076,33.470059,2021-08-07 18:13:00,2624,"온더스톤, 2746, 해맞이해안로, 오조리, 서귀포시, 제주특별자치도, 63639, 대한민국"
461000bf,20210807192100,126.916058,33.447594,2021-08-07 19:21:00,2896,"돈이랑성산점, 30, 일출로, 고성리, 서귀포시, 제주특별자치도, 63640, 대한민국"
461000bf,20210807201930,126.918127,33.470078,2021-08-07 20:19:30,567177,"온더스톤, 2746, 해맞이해안로, 오조리, 서귀포시, 제주특별자치도, 63639, 대한민국"
461000bf,20210814102600,126.929613,33.430929,2021-08-14 10:26:00,4110,"신양리, 서귀포시, 제주특별자치도, 63641, 대한민국"
461000bf,20210814130100,126.79496,33.557819,2021-08-14 13:01:00,1736,"해맞이해안로, 월정리, 제주시, 제주특별자치도, 63358, 대한민국"
461000bf,20210814135100,126.795005,33.557874,2021-08-14 13:51:00,1276,"해맞이해안로, 월정리, 제주시, 제주특별자치도, 63358, 대한민국"
461000bf,20210814151100,126.935051,33.463459,2021-08-14 15:11:00,1654,"성산진미식당, 290, 일출로, 성산리, 서귀포시, 제주특별자치도, 63643, 대한민국"
461000bf,20210814155500,126.920906,33.436152,2021-08-14 15:55:00,5905,"망고레이필리핀디저트카페, 102, 신양로, 신양리, 서귀포시, 제주특별자치도, 63641, 대한민국"
461000bf,20210814181000,126.92093,33.436151,2021-08-14 18:10:00,20361,"망고레이필리핀디저트카페, 102, 신양로, 신양리, 서귀포시, 제주특별자치도, 63641, 대한민국"
461000bf,20210815001300,126.920919,33.436148,2021-08-15 00:13:00,553929,"망고레이필리핀디저트카페, 102, 신양로, 신양리, 서귀포시, 제주특별자치도, 63641, 대한민국"
461000bf,20210821103400,126.345498,33.396498,2021-08-21 10:34:00,5732,"아르떼뮤지엄 ARTE MUSEUM, 478, 금가로, 상가리, 제주시, 제주특별자치도, 63038, 대한민국"
461000bf,20210821140400,126.934811,33.465906,2021-08-21 14:04:00,3268,"푸른제주, 256, 한도로, 성산리, 서귀포시, 제주특별자치도, 63643, 대한민국"
461000bf,20210821152630,126.916862,33.448476,2021-08-21 15:26:30,574380,"고성리, 서귀포시, 제주특별자치도, 63640, 대한민국"
461000bf,20210828070400,126.496503,33.504625,2021-08-28 07:04:00,3747,"제주국제공항입구, 공항로, 제주시, 제주특별자치도, 63115, 대한민국"
461000bf,20210828080630,126.496757,33.505035,2021-08-28 08:06:30,3030,"탐라 렌트카, 용문로, 용담이동, 제주시, 제주특별자치도, 63115, 대한민국"
461000bf,20210828090230,126.507533,33.512494,2021-08-28 09:02:30,3971,"제주조은의원, 성화로10길, 용담이동, 제주시, 제주특별자치도, 63156, 대한민국"
461000bf,20210828110800,126.454654,33.496746,2021-08-28 11:08:00,1520,"도리로, 이호이동, 현사마을, 제주시, 제주특별자치도, 63108, 대한민국"
461000bf,20210828131400,126.415827,33.244199,2021-08-28 13:14:00,4486,"퍼시픽랜드 4주차장, 154-17, 중문관광로, 서귀포시, 제주특별자치도, 63535, 대한민국"
461000bf,20210828151600,126.415543,33.244433,2021-08-28 15:16:00,13190,"퍼시픽랜드 4주차장, 154-17, 중문관광로, 서귀포시, 제주특별자치도, 63535, 대한민국"
461000bf,20210828204000,126.521696,33.51728,2021-08-28 20:40:00,4124,"중앙로2길, 탑동, 제주시, 제주특별자치도, 63165, 대한민국"
461000c1,20210807081830,126.497769,33.517245,2021-08-07 08:18:30,4481,"제주카페거리(어영마을), 제주시, 제주특별자치도, 63114, 대한민국"
461000c1,20210807105930,126.497694,33.517649,2021-08-07 10:59:30,605108,"제주카페거리(어영마을), 제주시, 제주특별자치도, 63114, 대한민국"
461000c1,20210814114900,126.925772,33.4333,2021-08-14 11:49:00,8093,"신양리, 서귀포시, 제주특별자치도, 63641, 대한민국"
461000c1,20210814155300,126.497731,33.517617,2021-08-14 15:53:00,586529,"제주카페거리(어영마을), 제주시, 제주특별자치도, 63114, 대한민국"
461000c1,20210821104930,126.497715,33.517747,2021-08-21 10:49:30,5784,"제주카페거리(어영마을), 제주시, 제주특별자치도, 63114, 대한민국"
461000c1,20210821130930,126.497653,33.517664,2021-08-21 13:09:30,584190,"제주카페거리(어영마을), 제주시, 제주특별자치도, 63114, 대한민국"
461000c1,20210828073900,126.497467,33.517983,2021-08-28 07:39:00,2488,"제주카페거리(어영마을), 제주시, 제주특별자치도, 63114, 대한민국"
461000c1,20210828094400,126.497707,33.517727,2021-08-28 09:44:00,26787,"제주카페거리(어영마을), 제주시, 제주특별자치도, 63114, 대한민국"
461000c1,20210828172630,126.321706,33.459847,2021-08-28 17:26:30,1321,"애원로, 애월리, 제주시, 제주특별자치도, 63043, 대한민국"
461000c1,20210828182630,126.303729,33.448917,2021-08-28 18:26:30,1835,"곽지1길, 곽지리, 제주시, 제주특별자치도, 63034, 대한민국"
461000c1,20210828190630,126.309234,33.456363,2021-08-28 19:06:30,4977,"일주서로, 곽지리, 제주시, 제주특별자치도, 63034, 대한민국"
461000c3,20210807080930,126.348587,33.472876,2021-08-07 08:09:30,3030,"남또리횟집, 384, 애월해안로, 애월읍, 제주시, 제주특별자치도, 63046, 대한민국"
461000c3,20210807091000,126.312894,33.46294,2021-08-07 09:10:00,17880,"애월리, 제주시, 제주특별자치도, 63043, 대한민국"
461000c3,20210807152530,126.316782,33.303812,2021-08-07 15:25:30,3451,"신화역사로, 서광리, 서귀포시, 제주특별자치도, 63522, 대한민국"
461000c3,20210807184400,126.312734,33.462852,2021-08-07 18:44:00,568620,"한담동, 애월로, 애월리, 제주시, 제주특별자치도, 63043, 대한민국"
461000c3,20210814084130,126.495943,33.518197,2021-08-14 08:41:30,1680,"제주카페거리(어영마을), 제주시, 제주특별자치도, 63114, 대한민국"
461000c3,20210814091000,126.497843,33.517269,2021-08-14 09:10:00,15120,"제주카페거리(어영마을), 제주시, 제주특별자치도, 63114, 대한민국"
461000c3,20210814133900,126.526312,33.514171,2021-08-14 13:39:00,1395,"칠성로상점가(제주시 활성화 구역 내), 12, 관덕로13길, 일도일동, 제주시, 제주특별자치도, 63277, 대한민국"
461000c3,20210814151400,126.298018,33.418814,2021-08-14 15:14:00,2070,"중산간서로, 제주시, 제주특별자치도, 63024, 대한민국"
461000c3,20210814160030,126.32839,33.347662,2021-08-14 16:00:30,2310,"우유부단, 산록남로, 제주시, 제주특별자치도, 63522, 대한민국"
461000c3,20210814175000,126.262914,33.416685,2021-08-14 17:50:00,3690,"다다식당, 0641796-1758, 한림해안로, 옹포리, 제주시, 제주특별자치도, 63012, 대한민국"
461000c3,20210814190230,126.298069,33.418776,2021-08-14 19:02:30,571410,"중산간서로, 제주시, 제주특별자치도, 63024, 대한민국"
461000c3,20210821100100,126.216512,33.37924,2021-08-21 10:01:00,1650,"월령리, 제주시, 제주특별자치도, 63011, 대한민국"
461000c3,20210821121800,126.898847,33.440086,2021-08-21 12:18:00,4117,"정성식당, 1237, 서성일로, 성산읍, 서귀포시, 제주특별자치도, 63641, 대한민국"
461000c3,20210821140230,126.93345,33.461177,2021-08-21 14:02:30,2280,"경미네집, 259, 일출로, 성산리, 서귀포시, 제주특별자치도, 63643, 대한민국"
461000c3,20210821144430,126.93547,33.463907,2021-08-21 14:44:30,1440,"성산리, 서귀포시, 제주특별자치도, 63643, 대한민국"
461000c3,20210821170030,126.56662,33.247441,2021-08-21 17:00:30,576570,"46, 정방로, 서귀동, 서귀포시, 제주특별자치도, 63595, 대한민국"
461000c3,20210828091900,126.935776,33.462514,2021-08-28 09:19:00,1916,"일출로, 성산리, 서귀포시, 제주특별자치도, 63643, 대한민국"
461000c3,20210828102430,126.77156,33.529148,2021-08-28 10:24:30,4170,"만장굴길, 제주시, 제주특별자치도, 63358, 대한민국"
461000c3,20210828120300,126.811085,33.491145,2021-08-28 12:03:00,4110,"비자림 청소년 수련원, 비자숲길, 구좌읍, 제주시, 제주특별자치도, 대한민국"
461000c3,20210828134330,126.756453,33.556092,2021-08-28 13:43:30,2970,"김녕로, 김녕리, 제주시, 제주특별자치도, 63357, 대한민국"
461000c3,20210828145300,126.669367,33.541361,2021-08-28 14:53:00,4823,"함덕해수욕장 주차장, 함덕로, 함덕리, 제주시, 제주특별자치도, 63333, 대한민국"
461000c3,20210828164500,126.62954,33.440031,2021-08-28 16:45:00,5040,"제주절물자연휴양림, 명림로, 제주시, 제주특별자치도, 63327, 대한민국"
461000c3,20210828190100,126.497737,33.517546,2021-08-28 19:01:00,1650,"제주카페거리(어영마을), 제주시, 제주특별자치도, 63114, 대한민국"
461000c4,20210807103500,126.486359,33.502696,2021-08-07 10:35:00,5380,"도두이동, 제주시, 제주특별자치도, 63115, 대한민국"
461000c4,20210807122400,126.473262,33.479432,2021-08-07 12:24:00,3990,"늘봄 흑돼지 (제주도 맛집), 2343-3, 한라대학로, 노형동, 제주시, 제주특별자치도, 63103, 대한민국"
461000c4,20210807134100,126.48614,33.486946,2021-08-07 13:41:00,2040,"제원3길, 제주시, 제주특별자치도, 63081, 대한민국"
461000c4,20210807143230,126.52178,33.509982,2021-08-07 14:32:30,3630,"남성로23길, 삼도일동, 제주시, 제주특별자치도, 63169, 대한민국"
461000c4,20210807160400,126.448276,33.497976,2021-08-07 16:04:00,7781,"태우해안로, 이호이동, 현사마을, 제주시, 제주특별자치도, 63074, 대한민국"
461000c4,20210807183230,126.486312,33.486314,2021-08-07 18:32:30,5670,"제원3길, 제주시, 제주특별자치도, 63081, 대한민국"
461000c4,20210807201400,126.480196,33.485112,2021-08-07 20:14:00,3600,"E-Mart, 노형14길, 제주시, 제주특별자치도, 63083, 대한민국"
461000c4,20210807211530,126.486114,33.486385,2021-08-07 21:15:30,567149,"원노형9길, 제주시, 제주특별자치도, 63081, 대한민국"
461000c4,20210814113900,126.933089,33.461079,2021-08-14 11:39:00,3165,"제주뚝배기, 255, 일출로, 성산리, 서귀포시, 제주특별자치도, 63643, 대한민국"
461000c4,20210814134600,126.921181,33.4367,2021-08-14 13:46:00,4247,"신양리, 서귀포시, 제주특별자치도, 63641, 대한민국"
461000c4,20210814154600,126.919275,33.445181,2021-08-14 15:46:00,6930,"섭지코지로25번길, 신양리, 서귀포시, 제주특별자치도, 63640, 대한민국"
461000c4,20210814181730,126.873765,33.373937,2021-08-14 18:17:30,579071,"신산리, 서귀포시, 제주특별자치도, 63634, 대한민국"
461000c4,20210821112930,126.793189,33.559372,2021-08-21 11:29:30,1991,"해맞이해안로, 월정리, 제주시, 제주특별자치도, 63358, 대한민국"
461000c4,20210821121000,126.790766,33.553117,2021-08-21 12:10:00,2910,"월정리, 제주시, 제주특별자치도, 63358, 대한민국"
461000c4,20210821130700,126.794782,33.533089,2021-08-21 13:07:00,12486,"덕행로, 행원리, 제주시, 제주특별자치도, 63358, 대한민국"
461000c4,20210821173230,126.585856,33.508015,2021-08-21 17:32:30,5885,"도련일동, 제주시, 제주특별자치도, 63303, 대한민국"
461000c4,20210821194030,126.488897,33.470387,2021-08-21 19:40:30,2796,"연동, 제주시, 제주특별자치도, 63142, 대한민국"
461000c4,20210821212100,126.794783,33.533091,2021-08-21 21:21:00,5060,"덕행로, 행원리, 제주시, 제주특별자치도, 63358, 대한민국"
461000c4,20210821225300,126.795292,33.556049,2021-08-21 22:53:00,2101,"월정리, 제주시, 제주특별자치도, 63358, 대한민국"
461000c4,20210821233730,126.794791,33.533092,2021-08-21 23:37:30,553554,"덕행로, 행원리, 제주시, 제주특별자치도, 63358, 대한민국"
461000c4,20210828094300,126.811048,33.556843,2021-08-28 09:43:00,3401,"해맞이해안로, 제주시, 제주특별자치도, 63358, 대한민국"
461000c4,20210828104100,126.805559,33.556969,2021-08-28 10:41:00,3840,"올레길 20, 제주시, 제주특별자치도, 63358, 대한민국"
461000c4,20210828121221,126.912744,33.503609,2021-08-28 12:12:21,1916,"해맞이해안로, 하도리, 제주시, 제주특별자치도, 63639, 대한민국"
461000c4,20210828130530,126.900946,33.489676,2021-08-28 13:05:30,1782,"제주시, 제주특별자치도, 63639, 대한민국"
461000c4,20210828134530,126.933833,33.472011,2021-08-28 13:45:30,12741,"성산리, 서귀포시, 제주특별자치도, 63643, 대한민국"
461000c4,20210828175230,126.805648,33.556499,2021-08-28 17:52:30,3875,"해난디아장 카페, 564, 해맞이해안로, 월정리, 제주시, 제주특별자치도, 63358, 대한민국"
461000c6,20210807080230,126.496388,33.518294,2021-08-07 08:02:30,1800,"제주카페거리(어영마을), 제주시, 제주특별자치도, 63114, 대한민국"
461000c6,20210807093900,126.50233,33.517246,2021-08-07 09:39:00,2340,"서해안로, 용담삼동, 제주시, 제주특별자치도, 63114, 대한민국"
461000c6,20210807105730,126.755961,33.453638,2021-08-07 10:57:30,22800,"비자림로, 제주시, 제주특별자치도, 대한민국"
461000c6,20210807184430,126.557434,33.249451,2021-08-07 18:44:30,569580,"고미횟집, 46, 서문로, 서귀동, 서귀포시, 제주특별자치도, 63592, 대한민국"
461000c6,20210814090930,126.582215,33.260566,2021-08-14 09:09:30,2130,"516로, 토평동, 서귀포시, 제주특별자치도, 63603, 대한민국"
461000c6,20210814105030,126.806549,33.556497,2021-08-14 10:50:30,3330,"해맞이해안로, 월정리, 제주시, 제주특별자치도, 63358, 대한민국"
461000c6,20210814134930,126.495949,33.518291,2021-08-14 13:49:30,5820,"제주카페거리(어영마을), 제주시, 제주특별자치도, 63114, 대한민국"
461000c6,20210814160300,126.519826,33.511409,2021-08-14 16:03:00,9900,"용담일동, 제주시, 제주특별자치도, 63168, 대한민국"
461000c6,20210814201230,126.264346,33.233915,2021-08-14 20:12:30,1950,"하나로마트, 일주서로2498번길, 대정읍, 상모리, 서귀포시, 제주특별자치도, 63510, 대한민국"
461000c7,20210807153800,126.31876,33.23885,2021-08-07 15:38:00,3609,"Jeju Olle Trail Route 10 Hwasun moseulpo, 화순리, 사계리, 서귀포시, 제주특별자치도, 63528, 대한민국"
461000c7,20210807174930,126.427737,33.257045,2021-08-07 17:49:30,3304,"중문상로, 중문동, 서귀포시, 제주특별자치도, 63545, 대한민국"
461000c7,20210807191830,126.562039,33.249769,2021-08-07 19:18:30,4350,"메가커피서귀포중앙점, 56, 중앙로, 서귀동, 서귀포시, 제주특별자치도, 63591, 대한민국"
461000c7,20210807205700,126.702973,33.273938,2021-08-07 20:57:00,556500,"금호 제주 리조트, 태위로510번길, 남원리, 서귀포시, 제주특별자치도, 63621, 대한민국"
461000c7,20210814073700,126.664249,33.542966,2021-08-14 07:37:00,1403,"함덕리, 제주시, 제주특별자치도, 63333, 대한민국"
461000c7,20210814080930,126.668869,33.542596,2021-08-14 08:09:30,3625,"조함해안로, 함덕리, 제주시, 제주특별자치도, 63333, 대한민국"
461000c7,20210814091330,126.656461,33.547677,2021-08-14 09:13:30,6516,"신흥리, 제주시, 제주특별자치도, 63332, 대한민국"
461000c7,20210814113930,126.771716,33.52988,2021-08-14 11:39:30,5220,"만장굴길, 제주시, 제주특별자치도, 63358, 대한민국"
461000c7,20210814133930,126.617186,33.502828,2021-08-14 13:39:30,2871,"회천동, 제주시, 제주특별자치도, 63327, 대한민국"
461000c7,20210814151400,126.526516,33.511036,2021-08-14 15:14:00,2157,"동문로2길, 일도일동, 제주시, 제주특별자치도, 63192, 대한민국"
461000c8,20210807124000,126.538064,33.502549,2021-08-07 12:40:00,8334,"예소담, 064-752-8882, 천수로, 일도이동, 제주시, 제주특별자치도, 63254, 대한민국"
461000c8,20210807150600,126.497878,33.517487,2021-08-07 15:06:00,8722,"제주카페거리(어영마을), 제주시, 제주특별자치도, 63114, 대한민국"
461000c8,20210807185330,126.562592,33.245686,2021-08-07 18:53:30,573489,"돌샘호프, 20, 태평로371번길, 서귀동, 서귀포시, 제주특별자치도, 63595, 대한민국"
461000c8,20210814104930,126.352913,33.473929,2021-08-14 10:49:30,6585,"애월해안로, 고내리, 제주시, 제주특별자치도, 63046, 대한민국"
461000c8,20210814130830,126.469487,33.504046,2021-08-14 13:08:30,3088,"도두일동, 제주시, 제주특별자치도, 63112, 대한민국"
461000c8,20210814143200,126.34038,33.467059,2021-08-14 14:32:00,2550,"고내리, 제주시, 제주특별자치도, 63046, 대한민국"
461000c8,20210814152730,126.31035,33.463172,2021-08-14 15:27:30,5717,"애월로, 애월리, 제주시, 제주특별자치도, 63043, 대한민국"
461000c8,20210814172630,126.377936,33.484068,2021-08-14 17:26:30,2386,"애월해안로, 구엄리, 제주시, 제주특별자치도, 63049, 대한민국"
461000c8,20210814181230,126.352938,33.473927,2021-08-14 18:12:30,572909,"애월해안로, 고내리, 제주시, 제주특별자치도, 63046, 대한민국"
461000c8,20210821094800,126.433566,33.488258,2021-08-21 09:48:00,2157,"우정로15길, 외도일동, 제주시, 제주특별자치도, 63070, 대한민국"
461000c8,20210821115200,126.385349,33.264092,2021-08-21 11:52:00,4564,"상예동, 서귀포시, 제주특별자치도, 63537, 대한민국"
461000c8,20210821132400,126.423424,33.241007,2021-08-21 13:24:00,1746,"ICC제주국제컨벤션센터주차장, 올레길 8코스(월평-대평 올레), 월평동, 서귀포시, 제주특별자치도, 63535, 대한민국"
461000c8,20210821144400,126.280672,33.442252,2021-08-21 14:44:00,2028,"한림해안로, 수원리, 제주시, 제주특별자치도, 63024, 대한민국"
461000c8,20210821155330,126.393241,33.484244,2021-08-21 15:53:30,1878,"애월해안로, 하귀2리, 제주시, 제주특별자치도, 63051, 대한민국"
461000c8,20210821172230,126.661886,33.545905,2021-08-21 17:22:30,3518,"조함해안로, 함덕리, 제주시, 제주특별자치도, 63333, 대한민국"
461000c8,20210821191130,126.526747,33.51042,2021-08-21 19:11:30,2022,"동문로2길, 일도일동, 제주시, 제주특별자치도, 63193, 대한민국"
461000c8,20210821202830,126.393267,33.484237,2021-08-21 20:28:30,564840,"애월해안로, 하귀2리, 제주시, 제주특별자치도, 63051, 대한민국"
461000c8,20210828095200,126.497742,33.517582,2021-08-28 09:52:00,20584,"제주카페거리(어영마을), 제주시, 제주특별자치도, 63114, 대한민국"
461000c8,20210828160100,126.249413,33.399906,2021-08-28 16:01:00,3190,"한림로, 옹포리, 제주시, 제주특별자치도, 63011, 대한민국"
461000c8,20210828173500,126.251154,33.401972,2021-08-28 17:35:00,1788,"올레길 14 (Ollegil 14), 옹포리, 제주시, 제주특별자치도, 63012, 대한민국"
461000c8,20210828210400,126.925898,33.42808,2021-08-28 21:04:00,5252,"섭지코지로, 신양리, 서귀포시, 제주특별자치도, 63641, 대한민국"
461000ce,20210807130800,126.641119,33.264991,2021-08-07 13:08:00,1347,"바다나비, 71-1, 공천포로, 서귀포시, 제주특별자치도, 63611, 대한민국"
461000ce,20210807133430,126.639624,33.259238,2021-08-07 13:34:30,3309,"하례망장포로, 서귀포시, 제주특별자치도, 63606, 대한민국"
461000ce,20210807143400,126.639731,33.259186,2021-08-07 14:34:00,1448,"하례망장포로, 서귀포시, 제주특별자치도, 63606, 대한민국"
461000ce,20210807150700,126.641789,33.265835,2021-08-07 15:07:00,1347,"유나카페, 81, 공천포로, 서귀포시, 제주특별자치도, 63611, 대한민국"
461000ce,20210807165030,126.355104,33.470713,2021-08-07 16:50:30,13517,"신엄리, 제주시, 제주특별자치도, 63046, 대한민국"
461000ce,20210807212200,126.348743,33.472891,2021-08-07 21:22:00,1860,"남또리횟집, 384, 애월해안로, 애월읍, 제주시, 제주특별자치도, 63046, 대한민국"
461000ce,20210807220230,126.354937,33.47076,2021-08-07 22:02:30,569621,"신엄리, 제주시, 제주특별자치도, 63046, 대한민국"
461000ce,20210814122730,126.519875,33.511221,2021-08-14 12:27:30,7583,"용담일동, 제주시, 제주특별자치도, 63168, 대한민국"
461000ce,20210814154830,126.333448,33.309991,2021-08-14 15:48:30,6510,"신화역사로, 서광리, 서귀포시, 제주특별자치도, 63522, 대한민국"
461000ce,20210814181500,126.299422,33.225042,2021-08-14 18:15:00,1821,"산계원식당, 80, 형제해안로, 사계리, 서귀포시, 제주특별자치도, 63528, 대한민국"
461000ce,20210814191300,126.318879,33.238995,2021-08-14 19:13:00,4328,"산바다레저공원, 141, 산방로, 화순리, 사계리, 서귀포시, 제주특별자치도, 63530, 대한민국"
461000ce,20210814211900,126.490964,33.489174,2021-08-14 21:19:00,557779,"공영주차장, 은남1길, 제주시, 제주특별자치도, 63125, 대한민국"
461000ce,20210821094530,126.502943,33.510564,2021-08-21 09:45:30,2098,"용해로, 용담이동, 제주시, 제주특별자치도, 63161, 대한민국"
461000ce,20210821104100,126.502686,33.510485,2021-08-21 10:41:00,18729,"용해로, 용담이동, 제주시, 제주특별자치도, 63161, 대한민국"
461000ce,20210821170400,126.401716,33.254852,2021-08-21 17:04:00,9150,"올레길 8코스(월평-대평 올레), 색달동, 소기왓, 대평리, 서귀포시, 제주특별자치도, 63538, 대한민국"
461000ce,20210821194730,126.415213,33.24521,2021-08-21 19:47:30,4532,"퍼시픽랜드 1주차장, 154-17, 중문관광로, 서귀포시, 제주특별자치도, 63535, 대한민국"
461000ce,20210821211800,126.402651,33.255591,2021-08-21 21:18:00,564124,"파노라마, 542, 예래해안로, 서귀포시, 제주특별자치도, 63537, 대한민국"
461000ce,20210828100800,126.502641,33.510497,2021-08-28 10:08:00,3124,"용해로, 용담이동, 제주시, 제주특별자치도, 63161, 대한민국"
461000ce,20210828113330,126.549577,33.475418,2021-08-28 11:33:30,4489,"인다3길, 아라이동, 제주시, 제주특별자치도, 63249, 대한민국"
461000ce,20210828140500,126.51567,33.237351,2021-08-28 14:05:00,12772,"놀멍걸으멍쉬멍, 9-1, Jeju Olle 7, 법환동, 서귀포시, 제주특별자치도, 63573, 대한민국"
461000ce,20210828181930,126.563262,33.250468,2021-08-28 18:19:30,4650,"마리식당, 중앙로62번길, 서귀동, 서귀포시, 제주특별자치도, 63590, 대한민국"
461000cf,20210814142000,126.492363,33.496065,2021-08-14 14:20:00,5736,"도령로, 제주시, 제주특별자치도, 63125, 대한민국"
461000cf,20210814171900,126.310314,33.458421,2021-08-14 17:19:00,5209,"일주서로, 곽지리, 제주시, 제주특별자치도, 63034, 대한민국"
461000cf,20210814213930,126.371758,33.477816,2021-08-14 21:39:30,4016,"구엄리, 제주시, 제주특별자치도, 63049, 대한민국"
461000cf,20210814225630,126.371761,33.477801,2021-08-14 22:56:30,559314,"구엄리, 제주시, 제주특별자치도, 63049, 대한민국"
461000cf,20210821101900,126.248132,33.395569,2021-08-21 10:19:00,15864,"협재리, 제주시, 제주특별자치도, 63011, 대한민국"
461000cf,20210821160230,126.302033,33.448054,2021-08-21 16:02:30,3108,"금성리, 제주시, 제주특별자치도, 63034, 대한민국"
461000cf,20210821165730,126.305033,33.449683,2021-08-21 16:57:30,1839,"곽지리, 제주시, 제주특별자치도, 63034, 대한민국"
461000cf,20210821180900,126.248115,33.395563,2021-08-21 18:09:00,570874,"협재리, 제주시, 제주특별자치도, 63011, 대한민국"
461000cf,20210828090900,126.492217,33.496102,2021-08-28 09:09:00,16830,"다호길, 도두이동, 제주시, 제주특별자치도, 63115, 대한민국"
461000cf,20210828141100,126.492686,33.496164,2021-08-28 14:11:00,6512,"도령로, 제주시, 제주특별자치도, 63125, 대한민국"
461000d6,20210807083030,126.492925,33.496073,2021-08-07 08:30:30,19923,"도령로, 제주시, 제주특별자치도, 63125, 대한민국"
461000d6,20210807142100,126.488778,33.48542,2021-08-07 14:21:00,1590,"연동6길, 제주시, 제주특별자치도, 63131, 대한민국"
461000d6,20210807145800,126.496915,33.481532,2021-08-07 14:58:00,1886,"연북로, 연동, 제주시, 제주특별자치도, 63136, 대한민국"
461000d6,20210807165130,126.560116,33.24448,2021-08-07 16:51:30,1898,"남성중로, 서귀동, 서귀포시, 제주특별자치도, 63592, 대한민국"
461000d6,20210807172900,126.573917,33.244508,2021-08-07 17:29:00,6253,"정방폭포 주차장, 칠십리로214번길, 서귀동, 서귀포시, 제주특별자치도, 63596, 대한민국"
461000d6,20210807192430,126.50789,33.516283,2021-08-07 19:24:30,1262,"용출횟집, 660, 서해안로, 용담삼동, 제주시, 제주특별자치도, 63114, 대한민국"
461000d6,20210807194730,126.507432,33.516332,2021-08-07 19:47:30,3530,"용출횟집, 660, 서해안로, 용담삼동, 제주시, 제주특별자치도, 63114, 대한민국"
461000d6,20210807210400,126.48922,33.485114,2021-08-07 21:04:00,558303,"연동6길, 제주시, 제주특별자치도, 63131, 대한민국"
461000d6,20210814085030,126.666431,33.542241,2021-08-14 08:50:30,2576,"함덕리, 제주시, 제주특별자치도, 63333, 대한민국"
461000d6,20210814100030,126.792361,33.555714,2021-08-14 10:00:30,3489,"월정리, 제주시, 제주특별자치도, 63358, 대한민국"
461000d6,20210814113230,126.898915,33.439893,2021-08-14 11:32:30,3233,"제주커피박물관, 89-17, 서성일로1168번길, 성산읍, 서귀포시, 제주특별자치도, 63641, 대한민국"
461000d6,20210814124230,126.934857,33.461907,2021-08-14 12:42:30,2059,"일출로, 성산리, 서귀포시, 제주특별자치도, 63643, 대한민국"
461000d9,20210807184100,126.492457,33.496186,2021-08-07 18:41:00,1980,"도령로, 제주시, 제주특별자치도, 63125, 대한민국"
461000d9,20210807191400,126.492806,33.496129,2021-08-07 19:14:00,576793,"도령로, 제주시, 제주특별자치도, 63125, 대한민국"
461000d9,20210814125030,126.573603,33.245127,2021-08-14 12:50:30,2493,"훼미리마트, 칠십리로214번길, 서귀포시, 제주특별자치도, 63596, 대한민국"
461000d9,20210814145430,126.355181,33.281611,2021-08-14 14:54:30,2310,"중산간서로, 상창리, 서귀포시, 제주특별자치도, 63522, 대한민국"
461000d9,20210814154830,126.385522,33.319153,2021-08-14 15:48:30,3855,"레오나르도다빈치박물관(다빈치뮤지엄), 산록남로, 광평리, 서귀포시, 제주특별자치도, 63551, 대한민국"
461000d9,20210814171700,126.25112,33.219334,2021-08-14 17:17:00,3113,"덕승식당, 하모항구로, 대정읍, 서귀포시, 제주특별자치도, 63507, 대한민국"
461000d9,20210814214100,126.897793,33.512807,2021-08-14 21:41:00,566310,"하도리, 제주시, 제주특별자치도, 63362, 대한민국"
461000d9,20210821110530,126.560308,33.244606,2021-08-21 11:05:30,6649,"남성중로, 서귀동, 서귀포시, 제주특별자치도, 63592, 대한민국"
461000d9,20210821134700,126.425979,33.238383,2021-08-21 13:47:00,2763,"중문관광단지 주차장4, 이어도로, 서귀포시, 제주특별자치도, 63545, 대한민국"
461000d9,20210821150830,126.567427,33.245105,2021-08-21 15:08:30,587820,"소암기념관, 소암로, 서귀동, 서귀포시, 제주특별자치도, 63596, 대한민국"
461000d9,20210828110700,126.385374,33.243096,2021-08-28 11:07:00,2610,"더이칠하나, 271, 예래로, 하예동, 소기왓, 대평리, 서귀포시, 제주특별자치도, 63537, 대한민국"
461000d9,20210828122500,126.377485,33.232673,2021-08-28 12:25:00,2532,"예래해안로, 하예동, 소기왓, 대평리, 서귀포시, 제주특별자치도, 63537, 대한민국"
461000d9,20210828134600,126.377513,33.232378,2021-08-28 13:46:00,3385,"예래해안로, 하예동, 소기왓, 대평리, 서귀포시, 제주특별자치도, 63537, 대한민국"
461000d9,20210828152300,126.377315,33.23282,2021-08-28 15:23:00,1694,"예래해안로, 하예동, 소기왓, 대평리, 서귀포시, 제주특별자치도, 63537, 대한민국"
461000d9,20210828164300,126.583325,33.244213,2021-08-28 16:43:00,1599,"검은여로, 서귀포시, 제주특별자치도, 63596, 대한민국"
461000db,20210814114200,126.572925,33.267079,2021-08-14 11:42:00,2572,"오일장어머니식당, 150, 토평서로11번길, 동홍동, 서귀포시, 제주특별자치도, 63588, 대한민국"
461000db,20210814135430,126.715514,33.552768,2021-08-14 13:54:30,2818,"동복로, 동복리, 제주시, 제주특별자치도, 63357, 대한민국"
461000db,20210814144430,126.709784,33.55348,2021-08-14 14:44:30,2001,"동복로, 동복리, 제주시, 제주특별자치도, 63357, 대한민국"
461000db,20210814161530,126.470493,33.507753,2021-08-14 16:15:30,6156,"KHÁCH SẠN JEJU, 서해안로, 도두일동, 제주시, 제주특별자치도, 63112, 대한민국"
461000db,20210814183630,126.468317,33.488003,2021-08-14 18:36:30,1861,"제주시, 제주특별자치도, 63103, 대한민국"
461000dd,20210807094330,126.81094,33.491256,2021-08-07 09:43:30,3148,"비자림 청소년 수련원, 비자숲길, 구좌읍, 제주시, 제주특별자치도, 대한민국"
461000dd,20210807103830,126.810575,33.4929,2021-08-07 10:38:30,1620,"비자숲길, 구좌읍, 제주시, 제주특별자치도, 대한민국"
461000dd,20210807113200,126.935127,33.461918,2021-08-07 11:32:00,1710,"일출로, 성산리, 서귀포시, 제주특별자치도, 63643, 대한민국"
461000dd,20210807120230,126.923318,33.468785,2021-08-07 12:02:30,20577,"오쿠치나, 137, 한도로, 오조리, 서귀포시, 제주특별자치도, 63639, 대한민국"
461000dd,20210807180100,126.916741,33.448473,2021-08-07 18:01:00,4110,"고성리, 서귀포시, 제주특별자치도, 63640, 대한민국"
461000dd,20210807192230,126.896868,33.475534,2021-08-07 19:22:30,574470,"시흥상동로77번길, 시흥리, 서귀포시, 제주특별자치도, 63639, 대한민국"
461000dd,20210814110500,126.310239,33.462921,2021-08-14 11:05:00,3529,"애월리, 제주시, 제주특별자치도, 63043, 대한민국"
461000dd,20210814120930,126.309536,33.464057,2021-08-14 12:09:30,6092,"애월리, 제주시, 제주특별자치도, 63043, 대한민국"
461000dd,20210814142200,126.235054,33.389308,2021-08-14 14:22:00,3810,"금능길, 협재리, 제주시, 제주특별자치도, 63011, 대한민국"
461000dd,20210814153030,126.24218,33.395996,2021-08-14 15:30:30,5820,"수우동, 064-796-5830, ollegil 14, 협재리, 제주시, 제주특별자치도, 63011, 대한민국"
461000dd,20210814182830,126.48819,33.451746,2021-08-14 18:28:30,2384,"1100로, 제주시, 제주특별자치도, 63142, 대한민국"
461000dd,20210814195930,126.663205,33.542391,2021-08-14 19:59:30,563910,"함덕16길, 함덕리, 제주시, 제주특별자치도, 63333, 대한민국"
461000dd,20210821090200,126.406007,33.259339,2021-08-21 09:02:00,5448,"본가프리미엄, 18, 색달로, 색달동, 서귀포시, 제주특별자치도, 63537, 대한민국"
461000dd,20210821104330,126.42361,33.241287,2021-08-21 10:43:30,3582,"ICC제주국제컨벤션센터주차장, 올레길 8코스(월평-대평 올레), 월평동, 서귀포시, 제주특별자치도, 63535, 대한민국"
461000dd,20210821121030,126.573885,33.244396,2021-08-21 12:10:30,1697,"올레길6, 서귀포시, 제주특별자치도, 63596, 대한민국"
461000dd,20210821143430,126.527927,33.512214,2021-08-21 14:34:30,1230,"동문시장, 동문로, 일도일동, 제주시, 제주특별자치도, 63192, 대한민국"
461000dd,20210821155230,126.486372,33.502791,2021-08-21 15:52:30,8400,"다호북길, 도두이동, 제주시, 제주특별자치도, 63115, 대한민국"
461000dd,20210821183500,126.527509,33.517231,2021-08-21 18:35:00,561325,"서부두1길, 탑동, 제주시, 제주특별자치도, 63277, 대한민국"
461000dd,20210828073430,126.569695,33.43883,2021-08-28 07:34:30,31308,"제주국제대학교, 516로, 제주시, 제주특별자치도, 63244, 대한민국"
461000dd,20210828173300,126.230985,33.333067,2021-08-28 17:33:00,6582,"아홉굿마을, 낙천리, 제주시, 제주특별자치도, 63006, 대한민국"
461000de,20210814095200,126.366692,33.235769,2021-08-14 09:52:00,2130,"카페두가시, 9, 대평감산로, 소기왓, 안덕면, 서귀포시, 제주특별자치도, 63530, 대한민국"
461000de,20210814122930,126.927971,33.431787,2021-08-14 12:29:30,4080,"신양리, 서귀포시, 제주특별자치도, 63641, 대한민국"
461000de,20210814134200,126.917059,33.438265,2021-08-14 13:42:00,3210,"해왓, 30-1, 신고로, 신양리, 서귀포시, 제주특별자치도, 63641, 대한민국"
461000de,20210814144800,126.930141,33.423351,2021-08-14 14:48:00,2370,"섭지코지로, 신양리, 서귀포시, 제주특별자치도, 63641, 대한민국"
461000de,20210814171100,126.364422,33.235998,2021-08-14 17:11:00,600300,"고래수, 44, 대평로, 소기왓, 대평리, 서귀포시, 제주특별자치도, 63538, 대한민국"
461000de,20210821161700,126.492849,33.496073,2021-08-21 16:17:00,5370,"도령로, 제주시, 제주특별자치도, 63125, 대한민국"
461000de,20210821185830,126.557127,33.247793,2021-08-21 18:58:30,567840,"중정로 5번길, 서귀동, 서귀포시, 제주특별자치도, 63592, 대한민국"
461000de,20210828091900,126.684352,33.396932,2021-08-28 09:19:00,12960,"남조로, 수망리, 서귀포시, 제주특별자치도, 대한민국"
461000de,20210828131130,126.661423,33.460451,2021-08-28 13:11:30,2760,"남조로, 교래리, 제주시, 제주특별자치도, 63343, 대한민국"
461000de,20210828142230,126.75223,33.412995,2021-08-28 14:22:30,8160,"서귀포시, 제주특별자치도, 대한민국"
461000de,20210828170000,126.756404,33.453657,2021-08-28 17:00:00,3630,"비자림로, 제주시, 제주특별자치도, 대한민국"
461000de,20210828182730,126.814844,33.368449,2021-08-28 18:27:30,4680,"번영로, 하천리, 서귀포시, 제주특별자치도, 63635, 대한민국"
461000e0,20210814181840,126.5265225,33.5053446,2021-08-14 18:18:40,1836,"삼성로, 이도일동, 제주시, 제주특별자치도, 63194, 대한민국"
461000e0,20210814191433,126.4731455,33.480089,2021-08-14 19:14:33,5425,"노형동, 제주시, 제주특별자치도, 63103, 대한민국"
461000e0,20210814210629,126.5262586,33.505131,2021-08-14 21:06:29,1173080,"삼성로, 이도일동, 제주시, 제주특별자치도, 63194, 대한민국"
461000e0,20210828113205,126.4938665,33.4961173,2021-08-28 11:32:05,7555,"도령로, 제주시, 제주특별자치도, 63125, 대한민국"
461000e0,20210828134855,126.5309781,33.5014844,2021-08-28 13:48:55,3201,"동광로4길, 이도일동, 제주시, 제주특별자치도, 63209, 대한민국"
461000e0,20210828145911,126.4734291,33.4816466,2021-08-28 14:59:11,2382,"노형로, 노형동, 제주시, 제주특별자치도, 63083, 대한민국"
461000e0,20210828154553,126.334979,33.4624913,2021-08-28 15:45:53,7900,"일주서로, 애월리, 제주시, 제주특별자치도, 63044, 대한민국"
461000e0,20210828181033,126.2654558,33.4003516,2021-08-28 18:10:33,3680,"일주서로, 한림읍, 제주시, 제주특별자치도, 63014, 대한민국"
461000e0,20210828191924,126.3456886,33.3004923,2021-08-28 19:19:24,1440,"안덕면, 서귀포시, 제주특별자치도, 63522, 대한민국"
461000e3,20210807095600,126.496584,33.348261,2021-08-07 09:56:00,4263,"영실-윗세 코스 1:30, 서귀포시, 제주특별자치도, 대한민국"
461000e3,20210807123900,126.621747,33.251062,2021-08-07 12:39:00,6216,"쇠소깍로, 서귀포시, 제주특별자치도, 63600, 대한민국"
461000e3,20210807144130,126.487321,33.234235,2021-08-07 14:41:30,7793,"이어도로, 서귀포시, 제주특별자치도, 63563, 대한민국"
461000e3,20210807180800,126.510046,33.251101,2021-08-07 18:08:00,4125,"세븐일레븐, 51, 김정문화로, 서귀포시, 제주특별자치도, 63572, 대한민국"
461000e3,20210807192300,126.509328,33.251773,2021-08-07 19:23:00,4401,"돈샷, 4, 김정문화로41번길, 서귀포시, 제주특별자치도, 63566, 대한민국"
461000e3,20210807204900,126.509799,33.251201,2021-08-07 20:49:00,568042,"세븐일레븐, 51, 김정문화로, 서귀포시, 제주특별자치도, 63572, 대한민국"
461000e3,20210814110030,126.418025,33.488724,2021-08-14 11:00:30,3715,"하귀1리, 제주시, 제주특별자치도, 63069, 대한민국"
461000e3,20210814124630,126.30941,33.463548,2021-08-14 12:46:30,1452,"애월리, 제주시, 제주특별자치도, 63043, 대한민국"
461000e3,20210814135000,126.345505,33.396879,2021-08-14 13:50:00,3913,"아르떼뮤지엄 ARTE MUSEUM, 478, 금가로, 상가리, 제주시, 제주특별자치도, 63038, 대한민국"
461000e3,20210814162200,126.910164,33.459369,2021-08-14 16:22:00,2790,"오조리, 서귀포시, 제주특별자치도, 63639, 대한민국"
461000e3,20210814171403,126.915044,33.44766,2021-08-14 17:14:03,5452,"고성리, 서귀포시, 제주특별자치도, 63640, 대한민국"
461000e3,20210814184930,126.909587,33.458794,2021-08-14 18:49:30,575644,"오조리, 서귀포시, 제주특별자치도, 63639, 대한민국"
461000e3,20210821130300,126.492128,33.495895,2021-08-21 13:03:00,10412,"다호길, 도두이동, 제주시, 제주특별자치도, 63115, 대한민국"
461000e3,20210821155632,126.492853,33.495918,2021-08-21 15:56:32,592588,"도령로, 제주시, 제주특별자치도, 63125, 대한민국"
461000e3,20210828130030,126.530801,33.500598,2021-08-28 13:00:30,2053,"대유초밥, 광양7길, 이도일동, 제주시, 제주특별자치도, 63208, 대한민국"
461000e3,20210828141730,126.811898,33.491377,2021-08-28 14:17:30,3840,"비자림 청소년 수련원, 비자숲길, 구좌읍, 제주시, 제주특별자치도, 대한민국"
461000e3,20210828161630,126.840023,33.533898,2021-08-28 16:16:30,4054,"구좌읍, 제주시, 제주특별자치도, 63359, 대한민국"
461000e3,20210828182700,126.496977,33.486783,2021-08-28 18:27:00,1736,"신대로15길, 제주시, 제주특별자치도, 63122, 대한민국"
461000e6,20210807164230,126.297008,33.22563,2021-08-07 16:42:30,578114,"사계남로, 사계리, 서귀포시, 제주특별자치도, 63528, 대한민국"
461000e6,20210814101200,126.308657,33.233074,2021-08-14 10:12:00,2812,"연우네, 217, 사계남로, 사계리, 서귀포시, 제주특별자치도, 63528, 대한민국"
461000e6,20210814112000,126.31122,33.233797,2021-08-14 11:20:00,1533,"용머리해안주차장, 28, 사계남로216번길, 사계리, 서귀포시, 제주특별자치도, 63528, 대한민국"
461000e6,20210814123030,126.360401,33.478605,2021-08-14 12:30:30,9771,"애월해안로, 구엄리, 제주시, 제주특별자치도, 63049, 대한민국"
461000e6,20210814160430,126.525073,33.513003,2021-08-14 16:04:30,1500,"제주지하상가, 관덕로7길, 탑동, 제주시, 제주특별자치도, 63166, 대한민국"
461000e6,20210814173530,126.360399,33.478626,2021-08-14 17:35:30,1186647,"애월해안로, 구엄리, 제주시, 제주특별자치도, 63049, 대한민국"
461000e6,20210828125930,126.197353,33.365744,2021-08-28 12:59:30,3404,"금등리, 제주시, 제주특별자치도, 63002, 대한민국"
461000e6,20210828140530,126.193741,33.362552,2021-08-28 14:05:30,4054,"일주서로, 금등리, 제주시, 제주특별자치도, 63002, 대한민국"
461000e6,20210828153100,126.200046,33.364946,2021-08-28 15:31:00,5997,"금등리, 제주시, 제주특별자치도, 63002, 대한민국"
461000e6,20210828190030,126.493343,33.496206,2021-08-28 19:00:30,2997,"도령로, 제주시, 제주특별자치도, 63125, 대한민국"
461000e6,20210828195030,126.491832,33.495894,2021-08-28 19:50:30,1239,"다호길, 도두이동, 제주시, 제주특별자치도, 63115, 대한민국"
461000e7,20210807101600,126.621575,33.450759,2021-08-07 10:16:00,6132,"제주시, 제주특별자치도, 63327, 대한민국"
461000e7,20210807120100,126.627175,33.444444,2021-08-07 12:01:00,3342,"노루생태관찰원, 명림로, 제주시, 제주특별자치도, 63327, 대한민국"
461000e7,20210807133800,126.873851,33.519473,2021-08-07 13:38:00,584700,"구좌로, 하도리, 제주시, 제주특별자치도, 63362, 대한민국"
461000e7,20210814092630,126.667005,33.446457,2021-08-14 09:26:30,10267,"에코랜드 테마파크, 남조로, 교래리, 제주시, 제주특별자치도, 63343, 대한민국"
461000e7,20210814125800,126.529757,33.506886,2021-08-14 12:58:00,2910,"삼성로5길, 이도일동, 제주시, 제주특별자치도, 63193, 대한민국"
461000e7,20210814134730,126.526672,33.510596,2021-08-14 13:47:30,2749,"동문로2길, 일도일동, 제주시, 제주특별자치도, 63192, 대한민국"
461000e7,20210814154530,126.824766,33.360818,2021-08-14 15:45:30,7419,"신풍리, 서귀포시, 제주특별자치도, 63635, 대한민국"
461000e7,20210814181730,126.824568,33.36061,2021-08-14 18:17:30,593990,"신풍리, 서귀포시, 제주특별자치도, 63635, 대한민국"
461000e7,20210821151800,126.49227,33.49516,2021-08-21 15:18:00,580212,"다호길, 도두이동, 제주시, 제주특별자치도, 63115, 대한민국"
461000e7,20210828084700,126.492678,33.496188,2021-08-28 08:47:00,6731,"도령로, 제주시, 제주특별자치도, 63125, 대한민국"
461000e7,20210828110530,126.572909,33.512031,2021-08-28 11:05:30,2314,"연삼로, 화북이동, 제주시, 제주특별자치도, 63303, 대한민국"
461000e7,20210828124400,126.30928,33.456474,2021-08-28 12:44:00,1901,"일주서로, 곽지리, 제주시, 제주특별자치도, 63034, 대한민국"
461000e7,20210828134830,126.197285,33.36575,2021-08-28 13:48:30,7278,"금등리, 제주시, 제주특별자치도, 63002, 대한민국"
461000e7,20210828172530,126.527498,33.51737,2021-08-28 17:25:30,6601,"서부두1길, 탑동, 제주시, 제주특별자치도, 63277, 대한민국"
461000e7,20210828202030,126.30925,33.463788,2021-08-28 20:20:30,3014,"애월리, 제주시, 제주특별자치도, 63043, 대한민국"
461000ea,20210807101730,126.508729,33.516108,2021-08-07 10:17:30,2294,"모드락, 서해안로, 용담삼동, 제주시, 제주특별자치도, 63114, 대한민국"
461000ea,20210807163700,126.492525,33.495997,2021-08-07 16:37:00,585727,"도령로, 제주시, 제주특별자치도, 63125, 대한민국"
461000ea,20210814114630,126.412575,33.482495,2021-08-14 11:46:30,1564,"하귀동남3길, 하귀1리, 제주시, 제주특별자치도, 63051, 대한민국"
461000ea,20210814131200,126.440473,33.495908,2021-08-14 13:12:00,3258,"내도바당횟집, 태우해안로, 내도동, 제주시, 제주특별자치도, 63071, 대한민국"
461000ea,20210814155200,126.345088,33.397153,2021-08-14 15:52:00,2551,"아르떼뮤지엄 ARTE MUSEUM, 478, 금가로, 상가리, 제주시, 제주특별자치도, 63038, 대한민국"
461000ea,20210814171630,126.254444,33.408536,2021-08-14 17:16:30,7824,"한림해안로, 옹포리, 제주시, 제주특별자치도, 63012, 대한민국"
461000ea,20210814210030,126.221893,33.385627,2021-08-14 21:00:30,4308,"한림로, 월령리, 제주시, 제주특별자치도, 63011, 대한민국"
461000ea,20210814225330,126.493798,33.481825,2021-08-14 22:53:30,559469,"연북로, 연동, 제주시, 제주특별자치도, 63136, 대한민국"
461000ea,20210821104330,126.492391,33.496063,2021-08-21 10:43:30,7756,"도령로, 제주시, 제주특별자치도, 63125, 대한민국"
461000ea,20210821132730,126.537959,33.506361,2021-08-21 13:27:30,1250,"신산로15길, 일도이동, 제주시, 제주특별자치도, 63254, 대한민국"
461000ea,20210821152900,126.899582,33.493513,2021-08-21 15:29:00,9005,"종달리, 제주시, 제주특별자치도, 63639, 대한민국"
461000ea,20210821180600,126.899543,33.493524,2021-08-21 18:06:00,1676,"종달리, 제주시, 제주특별자치도, 63639, 대한민국"
461000ea,20210821190230,126.911905,33.446258,2021-08-21 19:02:30,1909,"일주동로, 고성리, 서귀포시, 제주특별자치도, 63640, 대한민국"
461000ea,20210821204430,126.537732,33.506218,2021-08-21 20:44:30,4353,"신산로15길, 일도이동, 제주시, 제주특별자치도, 63254, 대한민국"
461000ea,20210821225700,126.537466,33.506196,2021-08-21 22:57:00,561064,"동광로15길, 일도이동, 제주시, 제주특별자치도, 63254, 대한민국"
461000ea,20210828105800,126.492528,33.495991,2021-08-28 10:58:00,4608,"도령로, 제주시, 제주특별자치도, 63125, 대한민국"
461000ea,20210828140430,126.449442,33.464844,2021-08-28 14:04:30,3363,"광령리, 제주시, 제주특별자치도, 63103, 대한민국"
461000ea,20210828154130,126.526407,33.517333,2021-08-28 15:41:30,1620,"서부두1길, 탑동, 제주시, 제주특별자치도, 63277, 대한민국"
461000ea,20210828160930,126.527238,33.517751,2021-08-28 16:09:30,11809,"서부두2길, 탑동, 제주시, 제주특별자치도, 63165, 대한민국"
461000ea,20210828194600,126.497229,33.486968,2021-08-28 19:46:00,2938,"돈가, 36, 문송길, 제주시, 제주특별자치도, 63122, 대한민국"
461000eb,20210807092730,126.643711,33.553059,2021-08-07 09:27:30,2790,"조함해안로, 신흥리, 제주시, 제주특별자치도, 63332, 대한민국"
461000eb,20210807114900,126.629169,33.440375,2021-08-07 11:49:00,7472,"제주절물자연휴양림, 명림로, 제주시, 제주특별자치도, 63327, 대한민국"
461000eb,20210807144000,126.491233,33.470263,2021-08-07 14:40:00,4081,"은수길, 제주시, 제주특별자치도, 63142, 대한민국"
461000eb,20210807161800,126.528157,33.512088,2021-08-07 16:18:00,3000,"중앙로13길, 일도일동, 제주시, 제주특별자치도, 63192, 대한민국"
461000eb,20210807173000,126.492672,33.490233,2021-08-07 17:30:00,2071,"51, 삼무로, 제주시, 제주특별자치도, 63125, 대한민국"
461000eb,20210807185630,126.497735,33.517518,2021-08-07 18:56:30,3085,"제주카페거리(어영마을), 제주시, 제주특별자치도, 63114, 대한민국"
461000eb,20210807194830,126.495877,33.517985,2021-08-07 19:48:30,574702,"사랑터울펜션, 서해안로, 용담삼동, 제주시, 제주특별자치도, 63114, 대한민국"
461000eb,20210814114330,126.348581,33.282134,2021-08-14 11:43:30,2687,"숨비나리카페, 8, 중산간서로, 안덕면, 서귀포시, 제주특별자치도, 63522, 대한민국"
461000eb,20210814130300,126.304937,33.275755,2021-08-14 13:03:00,5588,"평화로319번길, 덕수리, 서귀포시, 제주특별자치도, 63529, 대한민국"
461000eb,20210814151600,126.240936,33.394687,2021-08-14 15:16:00,3387,"한림로, 옹포리, 제주시, 제주특별자치도, 63011, 대한민국"
461000eb,20210814174430,126.418947,33.489028,2021-08-14 17:44:30,3101,"일주서로, 외도이동, 하귀1리, 제주시, 제주특별자치도, 63069, 대한민국"
461000eb,20210814195330,126.497668,33.517587,2021-08-14 19:53:30,1175800,"제주카페거리(어영마을), 제주시, 제주특별자치도, 63114, 대한민국"
461000eb,20210828112730,126.49774,33.517488,2021-08-28 11:27:30,3128,"제주카페거리(어영마을), 제주시, 제주특별자치도, 63114, 대한민국"
461000eb,20210828122830,126.497718,33.517736,2021-08-28 12:28:30,4468,"제주카페거리(어영마을), 제주시, 제주특별자치도, 63114, 대한민국"
461000eb,20210828145330,126.668266,33.543819,2021-08-28 14:53:30,4251,"제주카약, 조함해안로, 함덕리, 제주시, 제주특별자치도, 63333, 대한민국"
461000eb,20210828173330,126.378283,33.484097,2021-08-28 17:33:30,3304,"애월해안로, 구엄리, 제주시, 제주특별자치도, 63049, 대한민국"
461000eb,20210828184630,126.31048,33.463194,2021-08-28 18:46:30,3724,"애월로, 애월리, 제주시, 제주특별자치도, 63043, 대한민국"
461000eb,20210828205230,126.490359,33.480955,2021-08-28 20:52:30,4081,"과원북4길, 연동, 제주시, 제주특별자치도, 63136, 대한민국"
461000eb,20210828222300,126.519085,33.509423,2021-08-28 22:23:00,5880,"서사로4길, 용담일동, 제주시, 제주특별자치도, 63172, 대한민국"
461000ec,20210807074845,126.492131,33.495935,2021-08-07 07:48:45,6533,"다호길, 도두이동, 제주시, 제주특별자치도, 63115, 대한민국"
461000ec,20210807094658,126.492104,33.496025,2021-08-07 09:46:58,614096,"다호길, 도두이동, 제주시, 제주특별자치도, 63115, 대한민국"
461000ec,20210814123032,126.467671,33.483895,2021-08-14 12:30:32,1678,"광평안길, 노형동, 제주시, 제주특별자치도, 63103, 대한민국"
461000ec,20210814125946,126.467824,33.484079,2021-08-14 12:59:46,9771,"광평동로, 노형동, 제주시, 제주특별자치도, 63103, 대한민국"
461000ec,20210814173609,126.492403,33.49607,2021-08-14 17:36:09,1592,"도령로, 제주시, 제주특별자치도, 63125, 대한민국"
461000ec,20210814180321,126.492916,33.496069,2021-08-14 18:03:21,596625,"도령로, 제주시, 제주특별자치도, 63125, 대한민국"
461000ec,20210821154736,126.492263,33.495119,2021-08-21 15:47:36,584040,"다호길, 도두이동, 제주시, 제주특별자치도, 63115, 대한민국"
461000ec,20210828100610,126.55897,33.239833,2021-08-28 10:06:10,2992,"남성중로, 서귀동, 서귀포시, 제주특별자치도, 63592, 대한민국"
461000ec,20210828110643,126.523607,33.245809,2021-08-28 11:06:43,4245,"용궁에빠진닭, 1059, 이어도로, 서귀포시, 제주특별자치도, 63572, 대한민국"
461000ec,20210828125510,126.415259,33.244288,2021-08-28 12:55:10,4523,"퍼시픽랜드 4주차장, 154-17, 중문관광로, 서귀포시, 제주특별자치도, 63535, 대한민국"
461000ee,20210807144600,126.933205,33.473835,2021-08-07 14:46:00,2070,"성산등용로, 성산리, 서귀포시, 제주특별자치도, 63643, 대한민국"
461000ee,20210807153630,126.959266,33.493778,2021-08-07 15:36:30,1977,"우도면, 제주시, 제주특별자치도, 63365, 대한민국"
461000ee,20210807163500,126.968556,33.497425,2021-08-07 16:35:00,3050,"검멀레 주차장, 1122, 우도해안길, 우도면, 제주시, 제주특별자치도, 63365, 대한민국"
461000ee,20210807175230,126.941323,33.508944,2021-08-07 17:52:30,1830,"우도해안길, 우도면, 제주시, 제주특별자치도, 63365, 대한민국"
461000ee,20210807184700,126.918197,33.438551,2021-08-07 18:47:00,1545,"가시아방국수, 10, 섭지코지로, 신양리, 서귀포시, 제주특별자치도, 63641, 대한민국"
461000ee,20210807191900,126.935129,33.462326,2021-08-07 19:19:00,1216,"일출로, 성산리, 서귀포시, 제주특별자치도, 63643, 대한민국"
461000ee,20210807210530,126.569506,33.247884,2021-08-07 21:05:30,565194,"서귀포중학교, 중정로, 서귀동, 서귀포시, 제주특별자치도, 63590, 대한민국"
461000ee,20210814100600,126.354851,33.470599,2021-08-14 10:06:00,2757,"신엄리, 제주시, 제주특별자치도, 63046, 대한민국"
461000ee,20210814114330,126.256828,33.405869,2021-08-14 11:43:30,4331,"옹포리, 제주시, 제주특별자치도, 63012, 대한민국"
461000ee,20210814170400,126.918853,33.449636,2021-08-14 17:04:00,1453,"오스테리아일디토, 20, 동류암로, 고성리, 서귀포시, 제주특별자치도, 63640, 대한민국"
461000ee,20210814175630,126.799564,33.39246,2021-08-14 17:56:30,3300,"성읍탐라식당, 116, 성읍정의현로, 성읍리, 서귀포시, 제주특별자치도, 63635, 대한민국"
461000ee,20210814195000,126.493183,33.496342,2021-08-14 19:50:00,1759,"도령로, 제주시, 제주특별자치도, 63125, 대한민국"
461000ee,20210814205300,126.413825,33.485272,2021-08-14 20:53:00,579169,"하귀동남1길, 하귀1리, 제주시, 제주특별자치도, 63051, 대한민국"
461000ee,20210821134900,126.492446,33.496076,2021-08-21 13:49:00,2990,"도령로, 제주시, 제주특별자치도, 63125, 대한민국"
461000ee,20210821145700,126.492911,33.496048,2021-08-21 14:57:00,588045,"도령로, 제주시, 제주특별자치도, 63125, 대한민국"
461000ee,20210828114430,126.561981,33.250139,2021-08-28 11:44:30,4500,"나르샤, 5, 중앙로62번길, 서귀동, 서귀포시, 제주특별자치도, 63590, 대한민국"
461000ee,20210828141400,126.310361,33.232951,2021-08-28 14:14:00,1380,"미도식당, 11, 사계남로216번길, 사계리, 서귀포시, 제주특별자치도, 63528, 대한민국"
461000ee,20210828144500,126.298391,33.224603,2021-08-28 14:45:00,1847,"형제해안로, 사계리, 서귀포시, 제주특별자치도, 63528, 대한민국"
461000ee,20210828160130,126.306774,33.351376,2021-08-28 16:01:30,4300,"금악리, 제주시, 제주특별자치도, 63018, 대한민국"
461000ee,20210828175700,126.460872,33.245728,2021-08-28 17:57:00,2484,"월평로, 월평동, 서귀포시, 제주특별자치도, 63561, 대한민국"
461000ee,20210828194530,126.664008,33.275069,2021-08-28 19:45:30,2029,"시즌박스, 154, 태위로, 위미리, 서귀포시, 제주특별자치도, 63611, 대한민국"
461000f1,20210807100730,126.50777,33.248331,2021-08-07 10:07:30,1830,"제주은행, 월드컵로, 법환동, 서귀포시, 제주특별자치도, 63572, 대한민국"
461000f1,20210807104500,126.514885,33.236754,2021-08-07 10:45:00,2970,"킨지, 56, 막숙포로, 법환동, 서귀포시, 제주특별자치도, 63573, 대한민국"
461000f1,20210807114900,126.561123,33.247132,2021-08-07 11:49:00,1950,"하르방식당, 18, 태평로353번길, 서귀동, 서귀포시, 제주특별자치도, 63592, 대한민국"
461000f1,20210807124900,126.514893,33.236781,2021-08-07 12:49:00,16830,"킨지, 56, 막숙포로, 법환동, 서귀포시, 제주특별자치도, 63573, 대한민국"
461000f1,20210807173900,126.557721,33.247501,2021-08-07 17:39:00,3600,"호텔크리스탈, 16, 중정로, 서귀동, 서귀포시, 제주특별자치도, 63592, 대한민국"
461000f1,20210807190100,126.506483,33.249447,2021-08-07 19:01:00,1410,"스타벅스 서귀포DT, 11, 일주서로, 서귀포시, 제주특별자치도, 63572, 대한민국"
461000f1,20210807193530,126.514919,33.236763,2021-08-07 19:35:30,573390,"킨지, 56, 막숙포로, 법환동, 서귀포시, 제주특별자치도, 63573, 대한민국"
461000f1,20210814105200,126.49327,33.496089,2021-08-14 10:52:00,1470,"도령로, 제주시, 제주특별자치도, 63125, 대한민국"
461000f1,20210814130000,126.492951,33.496069,2021-08-14 13:00:00,13950,"도령로, 제주시, 제주특별자치도, 63125, 대한민국"
461000f1,20210814173130,126.528174,33.512132,2021-08-14 17:31:30,3450,"중앙로13길, 일도일동, 제주시, 제주특별자치도, 63192, 대한민국"
461000f1,20210814182900,126.52834,33.512467,2021-08-14 18:29:00,1830,"동문시장, 동문로, 일도일동, 제주시, 제주특별자치도, 63192, 대한민국"
461000f6,20210807105821,126.316747,33.303467,2021-08-07 10:58:21,24940,"신화역사로, 서광리, 서귀포시, 제주특별자치도, 63522, 대한민국"
461000f6,20210807180937,126.270363,33.316676,2021-08-07 18:09:37,2649,"녹차분재로, 저지리, 제주시, 제주특별자치도, 63004, 대한민국"
461000f6,20210807194427,126.350783,33.472612,2021-08-07 19:44:27,3376,"다인 오세아노 호텔, 애월해안로, 고내리, 제주시, 제주특별자치도, 63046, 대한민국"
461000f6,20210807213524,126.30355,33.448707,2021-08-07 21:35:24,1489,"곽지1길, 곽지리, 제주시, 제주특별자치도, 63034, 대한민국"
461000f6,20210807221835,126.350331,33.472212,2021-08-07 22:18:35,565078,"다인 오세아노 호텔, 애월해안로, 고내리, 제주시, 제주특별자치도, 63046, 대한민국"
461000f6,20210814121129,126.524238,33.514379,2021-08-14 12:11:29,1540,"탑동, 제주시, 제주특별자치도, 63166, 대한민국"
461000f6,20210814161358,126.910219,33.473161,2021-08-14 16:13:58,13482,"오조리, 서귀포시, 제주특별자치도, 63639, 대한민국"
461000f6,20210814202513,126.919851,33.46909,2021-08-14 20:25:13,2125,"돌섬, 109, 한도로, 오조리, 서귀포시, 제주특별자치도, 63639, 대한민국"
461000f6,20210814211501,126.910051,33.473461,2021-08-14 21:15:01,1181576,"오조리, 서귀포시, 제주특별자치도, 63639, 대한민국"
461000f6,20210828133433,126.425692,33.252394,2021-08-28 13:34:33,2409,"빈스와플, 43, 중문상로, 중문동, 서귀포시, 제주특별자치도, 63545, 대한민국"
461000f6,20210828142245,126.446288,33.249444,2021-08-28 14:22:45,1734,"동백정원, 117, 이어도로343번길, 대포동, 서귀포시, 제주특별자치도, 63540, 대한민국"
461000f6,20210828150540,126.415792,33.244249,2021-08-28 15:05:40,11928,"퍼시픽랜드 4주차장, 154-17, 중문관광로, 서귀포시, 제주특별자치도, 63535, 대한민국"
461000f9,20210807125930,126.318732,33.239338,2021-08-07 12:59:30,3215,"산바다레저공원, 141, 산방로, 화순리, 사계리, 서귀포시, 제주특별자치도, 63530, 대한민국"
461000f9,20210807142630,126.375308,33.419365,2021-08-07 14:26:30,15853,"소길남길, 소길리, 제주시, 제주특별자치도, 63067, 대한민국"
461000f9,20210807193930,126.411569,33.484709,2021-08-07 19:39:30,1621,"하귀동남1길, 하귀1리, 제주시, 제주특별자치도, 63051, 대한민국"
461000f9,20210807203230,126.375208,33.419446,2021-08-07 20:32:30,558514,"소길남길, 소길리, 제주시, 제주특별자치도, 63067, 대한민국"
461000f9,20210814085530,126.479461,33.498061,2021-08-14 08:55:30,2208,"제성1길, 도두이동, 제주시, 제주특별자치도, 63095, 대한민국"
461000f9,20210814093230,126.479313,33.498118,2021-08-14 09:32:30,6391,"제성1길, 도두이동, 제주시, 제주특별자치도, 63095, 대한민국"
461000f9,20210814113800,126.466639,33.506032,2021-08-14 11:38:00,2215,"도두일동, 제주시, 제주특별자치도, 63112, 대한민국"
461000f9,20210814131600,126.668575,33.542178,2021-08-14 13:16:00,2860,"함덕국민학교옛터 공영주차장, 신북로, 신흥리, 제주시, 제주특별자치도, 63333, 대한민국"
461000f9,20210814142430,126.771936,33.5361,2021-08-14 14:24:30,2610,"김녕미로공원, 122, 만장굴길, 월정리, 제주시, 제주특별자치도, 63358, 대한민국"
461000f9,20210814151030,126.772319,33.529389,2021-08-14 15:10:30,2730,"만장굴길, 제주시, 제주특별자치도, 63358, 대한민국"
461000f9,20210814161930,126.702302,33.47981,2021-08-14 16:19:30,4672,"선교로, 선흘리, 제주시, 제주특별자치도, 63343, 대한민국"
461000f9,20210814183830,126.509476,33.252054,2021-08-14 18:38:30,3000,"돈샷, 4, 김정문화로41번길, 서귀포시, 제주특별자치도, 63566, 대한민국"
461000f9,20210814194200,126.563232,33.246781,2021-08-14 19:42:00,6888,"태평로439길, 서귀동, 서귀포시, 제주특별자치도, 63595, 대한민국"
461000f9,20210814220100,126.509349,33.252136,2021-08-14 22:01:00,559369,"돈샷, 4, 김정문화로41번길, 서귀포시, 제주특별자치도, 63566, 대한민국"
461000f9,20210821103500,126.311408,33.46162,2021-08-21 10:35:00,1595,"Randy's Donuts, 애월로, 애월리, 제주시, 제주특별자치도, 63043, 대한민국"
461000f9,20210821132230,126.47676,33.509002,2021-08-21 13:22:30,5880,"도두일동, 제주시, 제주특별자치도, 63112, 대한민국"
461000f9,20210821160030,126.505876,33.516588,2021-08-21 16:00:30,2759,"서해안로, 용담삼동, 제주시, 제주특별자치도, 63114, 대한민국"
461000f9,20210821180830,126.669615,33.541648,2021-08-21 18:08:30,2314,"함덕해수욕장 주차장, 함덕로, 함덕리, 제주시, 제주특별자치도, 63333, 대한민국"
461000f9,20210821185500,126.669607,33.541625,2021-08-21 18:55:00,7990,"함덕해수욕장 주차장, 함덕로, 함덕리, 제주시, 제주특별자치도, 63333, 대한민국"
461000f9,20210821213700,126.669589,33.541651,2021-08-21 21:37:00,2250,"함덕해수욕장 주차장, 함덕로, 함덕리, 제주시, 제주특별자치도, 63333, 대한민국"
461000f9,20210821221530,126.669921,33.541604,2021-08-21 22:15:30,2730,"함덕해수욕장 주차장, 함덕로, 함덕리, 제주시, 제주특별자치도, 63333, 대한민국"
461000f9,20210822010930,126.479252,33.497959,2021-08-22 01:09:30,543180,"도두이동, 제주시, 제주특별자치도, 63095, 대한민국"
461000f9,20210828085300,126.479421,33.498184,2021-08-28 08:53:00,4580,"제성1길, 도두이동, 제주시, 제주특별자치도, 63095, 대한민국"
461000f9,20210828101100,126.479387,33.498354,2021-08-28 10:11:00,6061,"제성1길, 도두이동, 제주시, 제주특별자치도, 63095, 대한민국"
461000f9,20210828125400,126.415971,33.254891,2021-08-28 12:54:00,5572,"스타벅스 제주중문DT, 95, 천제연로, 서귀포시, 제주특별자치도, 63535, 대한민국"
461000f9,20210828144330,126.484568,33.265499,2021-08-28 14:43:30,16417,"서귀포시, 제주특별자치도, 63561, 대한민국"
461000f9,20210828193130,126.430762,33.250592,2021-08-28 19:31:30,1530,"중문주유소, 중문관광로, 서귀포시, 제주특별자치도, 63540, 대한민국"
461000f9,20210828201930,126.562015,33.249971,2021-08-28 20:19:30,1950,"수진돌솥밥, 4, 중앙로62번길, 서귀동, 서귀포시, 제주특별자치도, 63590, 대한민국"
461000fd,20210807100830,126.239739,33.392934,2021-08-07 10:08:30,13268,"한림로, 옹포리, 제주시, 제주특별자치도, 63011, 대한민국"
461000fd,20210807142530,126.355078,33.470806,2021-08-07 14:25:30,13614,"신엄리, 제주시, 제주특별자치도, 63046, 대한민국"
461000fd,20210807182230,126.370153,33.472764,2021-08-07 18:22:30,3308,"중엄1길, 신엄리, 제주시, 제주특별자치도, 63049, 대한민국"
461000fd,20210807192800,126.311685,33.46043,2021-08-07 19:28:00,1865,"애월로, 애월리, 제주시, 제주특별자치도, 63043, 대한민국"
461000fd,20210807201630,126.354955,33.470638,2021-08-07 20:16:30,574087,"신엄리, 제주시, 제주특별자치도, 63046, 대한민국"
461000fd,20210814115930,126.497553,33.504679,2021-08-14 11:59:30,2649,"SK 주유소, 용문로, 용담이동, 제주시, 제주특별자치도, 63115, 대한민국"
461000fd,20210814124900,126.497603,33.504787,2021-08-14 12:49:00,21930,"SK 주유소, 용문로, 용담이동, 제주시, 제주특별자치도, 63115, 대한민국"
461000fd,20210814185430,126.498302,33.504461,2021-08-14 18:54:30,1183611,"스타 렌트카, 용문로, 용담이동, 제주시, 제주특별자치도, 63115, 대한민국"
461000fd,20210828114930,126.602027,33.237741,2021-08-28 11:49:30,2872,"올레길6, 볼레낭마을, 서귀포시, 제주특별자치도, 63600, 대한민국"
461000fd,20210828124830,126.603553,33.261627,2021-08-28 12:48:30,4318,"효돈로, 신효동, 서귀포시, 제주특별자치도, 63606, 대한민국"
461000fd,20210828145630,126.637584,33.434326,2021-08-28 14:56:30,1990,"사려니숲길주차장, 샤려니숲길, 제주시, 제주특별자치도, 대한민국"
461000fd,20210828154630,126.684282,33.39741,2021-08-28 15:46:30,3482,"남조로, 수망리, 서귀포시, 제주특별자치도, 대한민국"
461000ff,20210814113530,126.441905,33.239514,2021-08-14 11:35:30,1712,"큰솔가, 193, 이어도로, 월평동, 서귀포시, 제주특별자치도, 63563, 대한민국"
461000ff,20210814121200,126.415142,33.251621,2021-08-14 12:12:00,3443,"Cheonjeyeon Falls, 중문관광로, 서귀포시, 제주특별자치도, 63535, 대한민국"
461000ff,20210814132630,126.421909,33.24389,2021-08-14 13:26:30,7724,"중문관광로, 서귀포시, 제주특별자치도, 63545, 대한민국"
461000ff,20210814154630,126.438086,33.239154,2021-08-14 15:46:30,2178,"큰갯물횟집, 161, 대포로, 서귀포시, 제주특별자치도, 63540, 대한민국"
461000ff,20210814164600,126.3247,33.242007,2021-08-14 16:46:00,6621,"다이버하우스, 75-9, 산방로, 화순리, 사계리, 서귀포시, 제주특별자치도, 63530, 대한민국"
461000ff,20210814184030,126.311579,33.236275,2021-08-14 18:40:30,2856,"214, 산방로, 화순리, 사계리, 서귀포시, 제주특별자치도, 63530, 대한민국"
461000ff,20210814193330,126.302646,33.227457,2021-08-14 19:33:30,1256,"올레길 10코스(화순-모슬포 올레), 사계리, 서귀포시, 제주특별자치도, 63528, 대한민국"
461000ff,20210814202600,126.324868,33.242015,2021-08-14 20:26:00,1178077,"다이버하우스, 75-9, 산방로, 화순리, 사계리, 서귀포시, 제주특별자치도, 63530, 대한민국"
461000ff,20210828115600,126.453342,33.497127,2021-08-28 11:56:00,2017,"도리로, 이호이동, 현사마을, 제주시, 제주특별자치도, 63108, 대한민국"
461000ff,20210828130500,126.339209,33.46325,2021-08-28 13:05:00,2485,"고내로, 고내리, 제주시, 제주특별자치도, 63044, 대한민국"
461000ff,20210828142830,126.335124,33.466327,2021-08-28 14:28:30,1410,"애월해안로, 고내리, 제주시, 제주특별자치도, 63044, 대한민국"
461000ff,20210828145530,126.340917,33.470289,2021-08-28 14:55:30,1383,"다락쉼터, 288, 애월해안로, 애월읍, 제주시, 제주특별자치도, 63046, 대한민국"
461000ff,20210828152600,126.362729,33.477872,2021-08-28 15:26:00,11819,"애월해안로, 신엄리, 제주시, 제주특별자치도, 63049, 대한민국"
461000ff,20210828190000,126.311763,33.46025,2021-08-28 19:00:00,2280,"애월로, 애월리, 제주시, 제주특별자치도, 63043, 대한민국"
46100100,20210814094329,126.933421,33.461061,2021-08-14 09:43:29,1528,"성산리, 서귀포시, 제주특별자치도, 63643, 대한민국"
46100100,20210814123733,126.515182,33.236508,2021-08-14 12:37:33,1332,"킨지, 56, 막숙포로, 법환동, 서귀포시, 제주특별자치도, 63573, 대한민국"
46100100,20210814133551,126.51187,33.247532,2021-08-14 13:35:51,1838,"앙끄레국수, 97-18, 법환상로2번길, 법환동, 서귀포시, 제주특별자치도, 63572, 대한민국"
46100100,20210814142050,126.563329,33.25016,2021-08-14 14:20:50,2108,"공영 주차장, 중앙로62번길, 서귀동, 서귀포시, 제주특별자치도, 63590, 대한민국"
46100100,20210814161106,126.910768,33.474752,2021-08-14 16:11:06,576038,"소반&카페베네(제주봄그리고가을리조트점), 2660, 해맞이해안로, 오조리, 서귀포시, 제주특별자치도, 63639, 대한민국"
46100100,20210821082058,126.673833,33.539876,2021-08-21 08:20:58,2261,"SK함덕주유소, 신북로, 신흥리, 제주시, 제주특별자치도, 63333, 대한민국"
46100100,20210821090333,126.666606,33.541961,2021-08-21 09:03:33,2785,"신북로, 신흥리, 제주시, 제주특별자치도, 63333, 대한민국"
46100100,20210821102018,126.713586,33.456305,2021-08-21 10:20:18,9025,"선교로, 선흘리, 제주시, 제주특별자치도, 63343, 대한민국"
46100100,20210821131825,126.66686,33.542014,2021-08-21 13:18:25,1566,"신북로, 신흥리, 제주시, 제주특별자치도, 63333, 대한민국"
46100100,20210821142501,126.491148,33.490415,2021-08-21 14:25:01,1502,"41, 삼무로3길, 제주시, 제주특별자치도, 63125, 대한민국"
46100100,20210821162146,126.666476,33.542025,2021-08-21 16:21:46,575622,"신북로, 신흥리, 제주시, 제주특별자치도, 63333, 대한민국"
46100100,20210828081814,126.492695,33.496054,2021-08-28 08:18:14,5853,"도령로, 제주시, 제주특별자치도, 63125, 대한민국"
46100100,20210828104948,126.518709,33.501514,2021-08-28 10:49:48,2851,"평전3길, 삼도일동, 제주시, 제주특별자치도, 63183, 대한민국"
46100100,20210828120202,126.434318,33.494134,2021-08-28 12:02:02,4203,"월대3길, 외도이동, 제주시, 제주특별자치도, 63071, 대한민국"
46100100,20210828135447,126.289684,33.304195,2021-08-28 13:54:47,5220,"제주오설록 티뮤지엄, 녹차분재로, Canons Town, 서광리, 서귀포시, 제주특별자치도, 63522, 대한민국"
46100100,20210828154144,126.249596,33.217722,2021-08-28 15:41:44,3798,"돈방석모슬포8호점, 22-13, 하모항구로, 대정읍, 서귀포시, 제주특별자치도, 63507, 대한민국"
46100100,20210828172401,126.298088,33.224424,2021-08-28 17:24:01,3145,"형제해안로, 사계리, 서귀포시, 제주특별자치도, 63528, 대한민국"
46100103,20210807103919,126.251042,33.21935,2021-08-07 10:39:19,3022,"부두식당, 64, 하모항구로, 대정읍, 서귀포시, 제주특별자치도, 63507, 대한민국"
46100103,20210807132039,126.452807,33.501897,2021-08-07 13:20:39,1602,"이호해변길, 이호이동, 현사마을, 제주시, 제주특별자치도, 63108, 대한민국"
46100103,20210807140230,126.44946,33.497604,2021-08-07 14:02:30,2161,"정자, 태우해안로, 이호이동, 현사마을, 제주시, 제주특별자치도, 63074, 대한민국"
46100103,20210807152121,126.306906,33.451022,2021-08-07 15:21:21,2446,"곽지리, 제주시, 제주특별자치도, 63034, 대한민국"
46100103,20210807162455,126.239167,33.392795,2021-08-07 16:24:55,1572,"한림로, 옹포리, 제주시, 제주특별자치도, 63011, 대한민국"
46100103,20210807175956,126.448698,33.497574,2021-08-07 17:59:56,4286,"내도동, 현사마을, 제주시, 제주특별자치도, 63074, 대한민국"
46100103,20210807194333,126.463901,33.506081,2021-08-07 19:43:33,573804,"도두항서길, 도두일동, 제주시, 제주특별자치도, 63112, 대한민국"
46100103,20210814121225,126.305632,33.351001,2021-08-14 12:12:25,2409,"금악리, 제주시, 제주특별자치도, 63018, 대한민국"
46100103,20210814131400,126.249293,33.400249,2021-08-14 13:14:00,2455,"한림로, 옹포리, 제주시, 제주특별자치도, 63011, 대한민국"
46100103,20210814160300,126.527567,33.517484,2021-08-14 16:03:00,12451,"서부두2길, 탑동, 제주시, 제주특별자치도, 63165, 대한민국"
46100103,20210814194422,126.528054,33.512317,2021-08-14 19:44:22,1790,"중앙로13길, 일도일동, 제주시, 제주특별자치도, 63192, 대한민국"
46100103,20210814204128,126.493056,33.496359,2021-08-14 20:41:28,8259,"도령로, 제주시, 제주특별자치도, 63125, 대한민국"
46100103,20210814230317,126.512282,33.500384,2021-08-14 23:03:17,1165710,"동산교, 오라일동, 제주시, 제주특별자치도, 63184, 대한민국"
46100103,20210828113910,126.309548,33.464019,2021-08-28 11:39:10,3777,"애월리, 제주시, 제주특별자치도, 63043, 대한민국"
46100103,20210828133311,126.494805,33.391676,2021-08-28 13:33:11,5428,"어승생악 등산로, 제주시, 제주특별자치도, 대한민국"
46100103,20210828162547,126.660844,33.544959,2021-08-28 16:25:47,14041,"함덕7길, 함덕리, 제주시, 제주특별자치도, 63332, 대한민국"
46100107,20210807074630,126.218557,33.381054,2021-08-07 07:46:30,8232,"한림로, 월령리, 제주시, 제주특별자치도, 63011, 대한민국"
46100107,20210807102300,126.239573,33.392972,2021-08-07 10:23:00,3246,"한림로, 옹포리, 제주시, 제주특별자치도, 63011, 대한민국"
46100107,20210807112730,126.259562,33.409209,2021-08-07 11:27:30,2183,"한림서길, 한림리, 제주시, 제주특별자치도, 63012, 대한민국"
46100107,20210807122400,126.237729,33.391059,2021-08-07 12:24:00,4033,"한림로, 옹포리, 제주시, 제주특별자치도, 63011, 대한민국"
46100107,20210807133300,126.237705,33.391085,2021-08-07 13:33:00,2146,"한림로, 옹포리, 제주시, 제주특별자치도, 63011, 대한민국"
46100107,20210807151200,126.494853,33.4888,2021-08-07 15:12:00,3030,"신대로12길, 제주시, 제주특별자치도, 63122, 대한민국"
46100107,20210807172230,126.794847,33.556421,2021-08-07 17:22:30,1906,"해맞이해안로, 월정리, 제주시, 제주특별자치도, 63358, 대한민국"
46100107,20210807190400,126.528307,33.512285,2021-08-07 19:04:00,1577,"일도일동, 제주시, 제주특별자치도, 63192, 대한민국"
46100107,20210807200400,126.668257,33.541903,2021-08-07 20:04:00,5655,"함덕국민학교옛터 공영주차장, 신북로, 신흥리, 제주시, 제주특별자치도, 63333, 대한민국"
46100107,20210807223200,126.492879,33.490032,2021-08-07 22:32:00,562799,"하워드존슨 제주 호텔, 57, 삼무로, 제주시, 제주특별자치도, 63125, 대한민국"
46100107,20210814114930,126.497545,33.491319,2021-08-14 11:49:30,1740,"귀아랑2길, 오라삼동, 제주시, 제주특별자치도, 63122, 대한민국"
46100107,20210814131030,126.721988,33.55452,2021-08-14 13:10:30,4632,"일주동로, 동복리, 제주시, 제주특별자치도, 63357, 대한민국"
46100107,20210814153930,126.541489,33.505556,2021-08-14 15:39:30,2434,"신설오름, 064-758-0143, 고마로17길, 일도이동, 제주시, 제주특별자치도, 63254, 대한민국"
46100107,20210814164900,126.429106,33.492568,2021-08-14 16:49:00,574258,"우정로, 외도이동, 하귀1리, 제주시, 제주특별자치도, 63071, 대한민국"
46100107,20210821082900,126.491922,33.495807,2021-08-21 08:29:00,1753,"다호길, 도두이동, 제주시, 제주특별자치도, 63115, 대한민국"
46100107,20210821092200,126.492968,33.496065,2021-08-21 09:22:00,5341,"도령로, 제주시, 제주특별자치도, 63125, 대한민국"
46100107,20210821110030,126.472131,33.491856,2021-08-21 11:00:30,3398,"월랑로, 제주시, 제주특별자치도, 63095, 대한민국"
46100107,20210821151930,126.311186,33.464275,2021-08-21 15:19:30,4588,"애월리, 제주시, 제주특별자치도, 63043, 대한민국"
46100107,20210821165500,126.374802,33.481852,2021-08-21 16:55:00,3293,"리부아르, 686, 애월해안로, 구엄리, 제주시, 제주특별자치도, 63049, 대한민국"
46100107,20210821184630,126.311134,33.464271,2021-08-21 18:46:30,589111,"애월리, 제주시, 제주특별자치도, 63043, 대한민국"
46100107,20210828150000,126.565162,33.242807,2021-08-28 15:00:00,1566,"솔동산로 21번길, 서귀동, 서귀포시, 제주특별자치도, 63596, 대한민국"
46100107,20210828160130,126.589094,33.289003,2021-08-28 16:01:30,3556,"토평공단로, 상효동, 서귀포시, 제주특별자치도, 63603, 대한민국"
46100107,20210828175300,126.643272,33.266549,2021-08-28 17:53:00,1235,"공천포로, 서귀포시, 제주특별자치도, 63611, 대한민국"
46100109,20210807101500,126.462831,33.357799,2021-08-07 10:15:00,1870,"1100로, 서귀포시, 제주특별자치도, 63551, 대한민국"
46100109,20210807112300,126.505773,33.261181,2021-08-07 11:23:00,2850,"중산간서로, 서귀포시, 제주특별자치도, 63565, 대한민국"
46100109,20210807121430,126.506895,33.247778,2021-08-07 12:14:30,2130,"율스버거, 18, 월드컵로, 법환동, 서귀포시, 제주특별자치도, 63572, 대한민국"
46100109,20210807141700,126.912845,33.445486,2021-08-07 14:17:00,3286,"일주동로, 고성리, 서귀포시, 제주특별자치도, 63640, 대한민국"
46100109,20210807155730,126.531626,33.500586,2021-08-07 15:57:30,2400,"동광로4길, 이도일동, 제주시, 제주특별자치도, 63209, 대한민국"
46100109,20210807165600,126.483865,33.478454,2021-08-07 16:56:00,575310,"한라중학교/부영아파트, 과원북2길, 연동, 제주시, 제주특별자치도, 63142, 대한민국"
46100109,20210814090200,126.529024,33.491255,2021-08-14 09:02:00,15895,"도남로15길, 도남동, 제주시, 제주특별자치도, 63205, 대한민국"
46100109,20210814141830,126.528998,33.49131,2021-08-14 14:18:30,2575,"도남로15길, 도남동, 제주시, 제주특별자치도, 63205, 대한민국"
46100109,20210814152600,126.484068,33.47866,2021-08-14 15:26:00,7470,"과원북2길, 연동, 제주시, 제주특별자치도, 63142, 대한민국"
46100109,20210814174930,126.530349,33.500816,2021-08-14 17:49:30,572160,"이도일동, 제주시, 제주특별자치도, 63208, 대한민국"
46100109,20210821090000,126.531182,33.500027,2021-08-21 09:00:00,3750,"광양13길, 이도일동, 제주시, 제주특별자치도, 63209, 대한민국"
46100109,20210821122200,126.511632,33.247337,2021-08-21 12:22:00,1763,"세리월드, 97-17, 법환상로2번길, 법환동, 서귀포시, 제주특별자치도, 63572, 대한민국"
46100109,20210821155400,126.531725,33.500346,2021-08-21 15:54:00,2490,"동광로4길, 이도일동, 제주시, 제주특별자치도, 63209, 대한민국"
46100109,20210821165730,126.483995,33.478532,2021-08-21 16:57:30,575670,"한라중학교/부영아파트, 과원북2길, 연동, 제주시, 제주특별자치도, 63142, 대한민국"
46100109,20210828090500,126.531352,33.500165,2021-08-28 09:05:00,6240,"제주시청, 10, 광양9길, 이도일동, 제주시, 제주특별자치도, 63208, 대한민국"
46100109,20210828115200,126.282114,33.249852,2021-08-28 11:52:00,2029,"추사로, 인성리, 서귀포시, 제주특별자치도, 63520, 대한민국"
46100109,20210828124930,126.289139,33.205311,2021-08-28 12:49:30,4135,"최남단해안로, 대정읍, 서귀포시, 제주특별자치도, 63507, 대한민국"
46100109,20210828155800,126.531585,33.50072,2021-08-28 15:58:00,4320,"새둥지, 동광로4길, 이도일동, 제주시, 제주특별자치도, 63209, 대한민국"
4610010c,20210814094430,126.491878,33.496069,2021-08-14 09:44:30,15563,"다호길, 도두이동, 제주시, 제주특별자치도, 63115, 대한민국"
4610010c,20210814144230,126.541389,33.506788,2021-08-14 14:42:30,3111,"고마로17길, 일도이동, 제주시, 제주특별자치도, 63254, 대한민국"
4610010f,20210807144030,126.513832,33.515119,2021-08-07 14:40:30,2756,"홍운길, 제주시, 제주특별자치도, 63167, 대한민국"
4610010f,20210807162030,126.50395,33.516735,2021-08-07 16:20:30,4052,"서해안로, 용담삼동, 제주시, 제주특별자치도, 63114, 대한민국"
4610010f,20210807182300,126.479275,33.498031,2021-08-07 18:23:00,9588,"도두이동, 제주시, 제주특별자치도, 63095, 대한민국"
4610010f,20210807212400,126.491066,33.489158,2021-08-07 21:24:00,571530,"공영주차장, 은남1길, 제주시, 제주특별자치도, 63125, 대한민국"
4610010f,20210814121900,126.561655,33.249449,2021-08-14 12:19:00,3748,"중앙로54번길, 서귀동, 서귀포시, 제주특별자치도, 63591, 대한민국"
4610010f,20210814134900,126.578178,33.247152,2021-08-14 13:49:00,6319,"올레길6 (Ollegil 6), 서귀포시, 제주특별자치도, 63596, 대한민국"
4610010f,20210814160400,126.560334,33.244481,2021-08-14 16:04:00,2106,"남성중로, 서귀동, 서귀포시, 제주특별자치도, 63592, 대한민국"
4610010f,20210814164800,126.546334,33.240912,2021-08-14 16:48:00,3233,"남성로, 서귀포시, 제주특별자치도, 63571, 대한민국"
4610010f,20210814174900,126.558545,33.239633,2021-08-14 17:49:00,1319,"남성중로, 서귀동, 서귀포시, 제주특별자치도, 63592, 대한민국"
4610010f,20210814183230,126.566425,33.248629,2021-08-14 18:32:30,571431,"동미다방, 95-2, 중정로, 서귀동, 서귀포시, 제주특별자치도, 63591, 대한민국"
4610010f,20210821103500,126.703395,33.273584,2021-08-21 10:35:00,3089,"태위로, 남원리, 서귀포시, 제주특별자치도, 63621, 대한민국"
4610010f,20210821120800,126.912689,33.503454,2021-08-21 12:08:00,1971,"해맞이해안로, 하도리, 제주시, 제주특별자치도, 63639, 대한민국"
4610010f,20210821140030,126.479576,33.498085,2021-08-21 14:00:30,3794,"제성1길, 도두이동, 제주시, 제주특별자치도, 63095, 대한민국"
4610010f,20210821150400,126.47937,33.498075,2021-08-21 15:04:00,10917,"제성1길, 도두이동, 제주시, 제주특별자치도, 63095, 대한민국"
4610010f,20210821181430,126.459989,33.498277,2021-08-21 18:14:30,12558,"이호이동, 제주시, 제주특별자치도, 63108, 대한민국"
4610010f,20210821215630,126.492935,33.505271,2021-08-21 21:56:30,1349,"출구 Exit, 제주시, 제주특별자치도, 63115, 대한민국"
4610010f,20210821223600,126.495741,33.489341,2021-08-21 22:36:00,563375,"은남길, 제주시, 제주특별자치도, 63122, 대한민국"
4610010f,20210828113300,126.165719,33.308023,2021-08-28 11:33:00,2816,"아리아커피, 노을해안로, 고산리, 제주시, 제주특별자치도, 63008, 대한민국"
4610010f,20210828123130,126.169222,33.318371,2021-08-28 12:31:30,3312,"Ollegil 12, 제주시, 제주특별자치도, 63008, 대한민국"
4610010f,20210828141800,126.439242,33.238311,2021-08-28 14:18:00,1635,"대포어촌계횟집, 올레길 8코스(월평-대평 올레), 월평동, 서귀포시, 제주특별자치도, 63535, 대한민국"
4610010f,20210828152800,126.264665,33.4247,2021-08-28 15:28:00,5323,"한수리, 제주시, 제주특별자치도, 63032, 대한민국"
4610010f,20210828170100,126.264964,33.411465,2021-08-28 17:01:00,2968,"한림리, 제주시, 제주특별자치도, 63032, 대한민국"
4610010f,20210828192130,126.263372,33.425714,2021-08-28 19:21:30,3705,"한림민박, 한림해안로, 한수리, 제주시, 제주특별자치도, 63032, 대한민국"
4610010f,20210828210230,126.26278,33.425671,2021-08-28 21:02:30,10203,"한림해안로, 한수리, 제주시, 제주특별자치도, 63032, 대한민국"
46100115,20210807093556,126.3069865,33.4477193,2021-08-07 09:35:56,3030,"일주서로, 곽지리, 제주시, 제주특별자치도, 63034, 대한민국"
46100115,20210807102626,126.4543713,33.495556,2021-08-07 10:26:26,1470,"일주서로, 이호이동, 현사마을, 제주시, 제주특별자치도, 63108, 대한민국"
46100115,20210807105856,126.4965971,33.5054508,2021-08-07 10:58:56,4617,"용문로, 용담이동, 제주시, 제주특별자치도, 63115, 대한민국"
46100115,20210807124523,126.5058113,33.5006571,2021-08-07 12:45:23,1710,"스타벅스, 42, 월성로, 용담이동, 제주시, 제주특별자치도, 63161, 대한민국"
46100115,20210807131423,126.5026806,33.5172343,2021-08-07 13:14:23,1685,"서해안로, 용담삼동, 제주시, 제주특별자치도, 63114, 대한민국"
46100115,20210807135006,126.5078276,33.4973193,2021-08-07 13:50:06,10772,"오라로, 오라삼동, 제주시, 제주특별자치도, 63148, 대한민국"
46100115,20210807171335,126.3550633,33.333135,2021-08-07 17:13:35,590314,"평화로, 동광리, 서귀포시, 제주특별자치도, 63522, 대한민국"
46100115,20210814131209,126.3329269,33.4626235,2021-08-14 13:12:09,12605,"일주서로, 애월리, 제주시, 제주특별자치도, 63044, 대한민국"
46100115,20210814165814,126.4535706,33.4952861,2021-08-14 16:58:14,6315,"일주서로, 이호이동, 현사마을, 제주시, 제주특별자치도, 63108, 대한민국"
46100115,20210814184359,126.5025948,33.5172351,2021-08-14 18:43:59,4236,"서해안로, 용담삼동, 제주시, 제주특별자치도, 63114, 대한민국"
46100115,20210814200535,126.496614,33.4916835,2021-08-14 20:05:35,574145,"신대로, 제주시, 제주특별자치도, 63122, 대한민국"
46100115,20210821113511,126.2408738,33.3941536,2021-08-21 11:35:11,3641,"한림로, 옹포리, 제주시, 제주특별자치도, 63011, 대한민국"
46100115,20210821123552,126.2403703,33.3935818,2021-08-21 12:35:52,15950,"한림로, 옹포리, 제주시, 제주특별자치도, 63011, 대한민국"
46100115,20210821170712,126.3896746,33.2702306,2021-08-21 17:07:12,9150,"중산간서로, 서귀포시, 제주특별자치도, 63537, 대한민국"
46100115,20210821194342,126.3460853,33.300231,2021-08-21 19:43:42,575415,"한창로, 동광리, 서귀포시, 제주특별자치도, 63522, 대한민국"
46100115,20210828113857,126.5266546,33.504923,2021-08-28 11:38:57,3512,"삼성로, 이도일동, 제주시, 제주특별자치도, 63194, 대한민국"
46100115,20210828132859,126.9102461,33.462578,2021-08-28 13:28:59,10031,"일주동로, 오조리, 서귀포시, 제주특별자치도, 63639, 대한민국"
46100115,20210828164210,126.7371815,33.5550348,2021-08-28 16:42:10,8287,"일주동로, 동복리, 제주시, 제주특별자치도, 63357, 대한민국"
46100115,20210828195357,126.5430528,33.5020336,2021-08-28 19:53:57,11350,"고마로, 건입동, 제주시, 제주특별자치도, 63272, 대한민국"
46100115,20210828233127,126.6121028,33.5268896,2021-08-28 23:31:27,1419,"일주동로, 신촌리, 제주시, 제주특별자치도, 63337, 대한민국"
46100115,20210829000936,126.6708766,33.4328316,2021-08-29 00:09:36,2567,"비자림로, 교래리, 제주시, 제주특별자치도, 대한민국"
46100119,20210807075500,126.502233,33.485535,2021-08-07 07:55:00,3007,"연미길, 오라삼동, 제주시, 제주특별자치도, 63148, 대한민국"
46100119,20210807085600,126.502039,33.485925,2021-08-07 08:56:00,3992,"연미길, 오라삼동, 제주시, 제주특별자치도, 63148, 대한민국"
46100119,20210807104030,126.501855,33.485509,2021-08-07 10:40:30,2798,"연오로, 오라삼동, 제주시, 제주특별자치도, 63122, 대한민국"
46100119,20210807114530,126.54628,33.493841,2021-08-07 11:45:30,1828,"신설로9길, 제주시, 제주특별자치도, 63260, 대한민국"
46100119,20210807135230,126.308998,33.45647,2021-08-07 13:52:30,9368,"일주서로, 곽지리, 제주시, 제주특별자치도, 63034, 대한민국"
46100119,20210807181130,126.528529,33.516073,2021-08-07 18:11:30,3030,"중앙로1길, 일도일동, 제주시, 제주특별자치도, 63277, 대한민국"
46100119,20210807190800,126.528236,33.512286,2021-08-07 19:08:00,2250,"중앙로13길, 일도일동, 제주시, 제주특별자치도, 63192, 대한민국"
46100119,20210807203400,126.53265,33.501835,2021-08-07 20:34:00,563511,"광양7길, 이도일동, 제주시, 제주특별자치도, 63208, 대한민국"
46100119,20210814102630,126.644144,33.55332,2021-08-14 10:26:30,3856,"관곶, 조함해안로, 신흥리, 제주시, 제주특별자치도, 63332, 대한민국"
46100119,20210814115700,126.714623,33.508976,2021-08-14 11:57:00,6188,"동백동산 습지센터, 동백로, 덕천리, 제주시, 제주특별자치도, 63343, 대한민국"
46100119,20210814140330,126.778886,33.442817,2021-08-14 14:03:30,3443,"금백조로, 수산리, 제주시, 제주특별자치도, 63631, 대한민국"
46100119,20210814153430,126.878713,33.528931,2021-08-14 15:34:30,3774,"하도리, 제주시, 제주특별자치도, 63362, 대한민국"
46100119,20210814164700,126.898538,33.495961,2021-08-14 16:47:00,2882,"종달로1길, 종달리, 제주시, 제주특별자치도, 63639, 대한민국"
46100119,20210814181030,126.899298,33.398293,2021-08-14 18:10:30,3006,"온평포구로54번길, 온평리, 서귀포시, 제주특별자치도, 63634, 대한민국"
46100119,20210814191730,126.899356,33.398307,2021-08-14 19:17:30,585848,"온평포구로54번길, 온평리, 서귀포시, 제주특별자치도, 63634, 대한민국"
46100119,20210821140138,126.50185,33.485442,2021-08-21 14:01:38,5005,"연오로, 오라삼동, 제주시, 제주특별자치도, 63122, 대한민국"
46100119,20210821155830,126.401128,33.482988,2021-08-21 15:58:30,1390,"일주서로, 하귀2리, 제주시, 제주특별자치도, 63051, 대한민국"
46100119,20210821163130,126.41475,33.482587,2021-08-21 16:31:30,3800,"하귀1리, 제주시, 제주특별자치도, 63051, 대한민국"
46100119,20210821173830,126.4114,33.48486,2021-08-21 17:38:30,1785,"하광로, 하귀1리, 제주시, 제주특별자치도, 63051, 대한민국"
46100119,20210821181730,126.401146,33.4828,2021-08-21 18:17:30,587374,"일주서로, 하귀2리, 제주시, 제주특별자치도, 63051, 대한민국"
46100119,20210828133130,126.502111,33.485596,2021-08-28 13:31:30,4839,"연오로, 오라삼동, 제주시, 제주특별자치도, 63122, 대한민국"
46100119,20210828145230,126.349446,33.472957,2021-08-28 14:52:30,1812,"남또리횟집, 384, 애월해안로, 애월읍, 제주시, 제주특별자치도, 63046, 대한민국"
46100119,20210828154730,126.345421,33.396595,2021-08-28 15:47:30,4539,"아르떼뮤지엄 ARTE MUSEUM, 478, 금가로, 상가리, 제주시, 제주특별자치도, 63038, 대한민국"
46100119,20210828182730,126.17694,33.344746,2021-08-28 18:27:30,2906,"한경해안로, 신창리, 제주시, 제주특별자치도, 63002, 대한민국"
4610011b,20210814130230,126.560089,33.243523,2021-08-14 13:02:30,8063,"남성중로, 서귀동, 서귀포시, 제주특별자치도, 63592, 대한민국"
4610011b,20210814151653,126.183446,33.350724,2021-08-14 15:16:53,10057,"두신로, 신창리, 제주시, 제주특별자치도, 63002, 대한민국"
4610011b,20210814180530,126.311232,33.459684,2021-08-14 18:05:30,1202601,"옛날식당, 11, 애월로, 애월리, 제주시, 제주특별자치도, 63043, 대한민국"
4610011b,20210828160900,126.472988,33.509313,2021-08-28 16:09:00,4308,"도두봉 동쪽, 서해안로, 도두일동, 제주시, 제주특별자치도, 63112, 대한민국"
4610011b,20210828172400,126.4544,33.503408,2021-08-28 17:24:00,1500,"이호해변길, 이호이동, 현사마을, 제주시, 제주특별자치도, 63108, 대한민국"
4610011b,20210828175300,126.454975,33.49596,2021-08-28 17:53:00,4892,"이호이동, 현사마을, 제주시, 제주특별자치도, 63108, 대한민국"
4610011d,20210807120530,126.771978,33.535384,2021-08-07 12:05:30,4746,"김녕미로공원, 122, 만장굴길, 월정리, 제주시, 제주특별자치도, 63358, 대한민국"
4610011d,20210807135130,126.755455,33.556852,2021-08-07 13:51:30,3422,"파라다이스비치, 김녕로21길, 김녕리, 제주시, 제주특별자치도, 63357, 대한민국"
4610011d,20210807160100,126.508116,33.499969,2021-08-07 16:01:00,8127,"서광로, 오라삼동, 제주시, 제주특별자치도, 63184, 대한민국"
4610011d,20210807190130,126.492081,33.495831,2021-08-07 19:01:30,576000,"다호길, 도두이동, 제주시, 제주특별자치도, 63115, 대한민국"
4610011d,20210814113000,126.484569,33.511072,2021-08-14 11:30:00,2685,"물성횟집, 서해안로, 용담삼동, 제주시, 제주특별자치도, 63114, 대한민국"
4610011d,20210814121830,126.496362,33.520086,2021-08-14 12:18:30,2430,"서해안로, 용담삼동, 제주시, 제주특별자치도, 63114, 대한민국"
4610011d,20210814135300,126.492929,33.496095,2021-08-14 13:53:00,9594,"도령로, 제주시, 제주특별자치도, 63125, 대한민국"
4610011d,20210814164000,126.498127,33.491807,2021-08-14 16:40:00,1568,"신대로7길, 오라삼동, 제주시, 제주특별자치도, 63125, 대한민국"
4610011d,20210814180830,126.518788,33.254629,2021-08-14 18:08:30,1274,"서호동, 서귀포시, 제주특별자치도, 63566, 대한민국"
4610011d,20210814191000,126.250461,33.218422,2021-08-14 19:10:00,10789,"제주인의밥상, 52, 하모항구로, 대정읍, 서귀포시, 제주특별자치도, 63507, 대한민국"
4610011d,20210814225700,126.519159,33.254713,2021-08-14 22:57:00,579914,"서호동, 서귀포시, 제주특별자치도, 63566, 대한민국"
4610011d,20210821160214,126.492859,33.495928,2021-08-21 16:02:14,580833,"도령로, 제주시, 제주특별자치도, 63125, 대한민국"
4610011d,20210828092700,126.252881,33.401006,2021-08-28 09:27:00,4410,"옹포리, 제주시, 제주특별자치도, 63012, 대한민국"
4610011d,20210828115400,126.493311,33.496226,2021-08-28 11:54:00,5047,"도령로, 제주시, 제주특별자치도, 63125, 대한민국"
4610011d,20210828141130,126.492005,33.495753,2021-08-28 14:11:30,10514,"다호길, 도두이동, 제주시, 제주특별자치도, 63115, 대한민국"
4610011d,20210828170644,126.492356,33.496029,2021-08-28 17:06:44,6976,"도령로, 제주시, 제주특별자치도, 63125, 대한민국"
4610011f,20210807164500,126.34476,33.395964,2021-08-07 16:45:00,2808,"아르떼뮤지엄 ARTE MUSEUM, 478, 금가로, 상가리, 제주시, 제주특별자치도, 63038, 대한민국"
4610011f,20210807180500,126.311309,33.459462,2021-08-07 18:05:00,1782,"옛날식당, 11, 애월로, 애월리, 제주시, 제주특별자치도, 63043, 대한민국"
4610011f,20210807184030,126.306516,33.451151,2021-08-07 18:40:30,2037,"일주서로, 곽지리, 제주시, 제주특별자치도, 63034, 대한민국"
4610011f,20210807192430,126.341484,33.464683,2021-08-07 19:24:30,1560,"고내로, 고내리, 제주시, 제주특별자치도, 63044, 대한민국"
4610011f,20210807202430,126.341739,33.465024,2021-08-07 20:24:30,560362,"고내로, 고내리, 제주시, 제주특별자치도, 63044, 대한민국"
4610011f,20210814081500,126.842874,33.325352,2021-08-14 08:15:00,1850,"표선당산로, 당포마을, 표선리, 서귀포시, 제주특별자치도, 63629, 대한민국"
4610011f,20210814091500,126.79202,33.306087,2021-08-14 09:15:00,7050,"바당, 6347-17, 일주동로, 서귀포시, 제주특별자치도, 63629, 대한민국"
4610011f,20210814120430,126.642627,33.266295,2021-08-14 12:04:30,1689,"공천포쉼터 (Gongcheonpo Arbor), 공천포로, 서귀포시, 제주특별자치도, 63611, 대한민국"
4610011f,20210814141500,126.301464,33.304843,2021-08-14 14:15:00,3978,"제주항공우주박물관, 녹차분재로, Canons Town, 서광리, 서귀포시, 제주특별자치도, 63522, 대한민국"
4610011f,20210814162430,126.527369,33.517731,2021-08-14 16:24:30,5988,"서부두2길, 탑동, 제주시, 제주특별자치도, 63165, 대한민국"
4610011f,20210814181630,126.510844,33.502524,2021-08-14 18:16:30,3775,"칠돈가, 한천로, 오라삼동, 제주시, 제주특별자치도, 63184, 대한민국"
4610011f,20210814194630,126.525785,33.517891,2021-08-14 19:46:30,1172733,"서부두2길, 탑동, 제주시, 제주특별자치도, 63165, 대한민국"
4610011f,20210828100700,126.935558,33.462399,2021-08-28 10:07:00,4274,"일출로, 성산리, 서귀포시, 제주특별자치도, 63643, 대한민국"
4610011f,20210828122100,126.54649,33.511854,2021-08-28 12:21:00,1337,"Toy Market, 동문로, 건입동, 제주시, 제주특별자치도, 63284, 대한민국"
4610011f,20210828131600,126.528853,33.489705,2021-08-28 13:16:00,3043,"복지로9길, 도남동, 제주시, 제주특별자치도, 63205, 대한민국"
4610011f,20210828150330,126.311683,33.460314,2021-08-28 15:03:30,6870,"애월로, 애월리, 제주시, 제주특별자치도, 63043, 대한민국"
4610011f,20210828175600,126.526065,33.510827,2021-08-28 17:56:00,3630,"동문재래, 16-8, 중앙로13길, 일도일동, 제주시, 제주특별자치도, 63192, 대한민국"
46100121,20210814083600,126.494055,33.518383,2021-08-14 08:36:00,631499,"제주카페거리(어영마을), 제주시, 제주특별자치도, 63114, 대한민국"
46100121,20210821160330,126.494231,33.517892,2021-08-21 16:03:30,582204,"제주카페거리(어영마을), 제주시, 제주특별자치도, 63114, 대한민국"
46100121,20210828112530,126.933115,33.472314,2021-08-28 11:25:30,19091,"성산리, 서귀포시, 제주특별자치도, 63643, 대한민국"
46100121,20210828171930,126.795141,33.553768,2021-08-28 17:19:30,5036,"월정리, 제주시, 제주특별자치도, 63358, 대한민국"
46100124,20210814092230,126.494178,33.518942,2021-08-14 09:22:30,607054,"제주카페거리(어영마을), 제주시, 제주특별자치도, 63114, 대한민국"
46100124,20210821120700,126.752228,33.413021,2021-08-21 12:07:00,5800,"서귀포시, 제주특별자치도, 대한민국"
46100124,20210821143430,126.52368,33.515627,2021-08-21 14:34:30,2584,"천금반점, 북성로, 탑동, 제주시, 제주특별자치도, 63167, 대한민국"
46100124,20210821155030,126.533605,33.510665,2021-08-21 15:50:30,1468,"신산로5길, 일도이동, 제주시, 제주특별자치도, 63272, 대한민국"
46100124,20210821173900,126.533643,33.51069,2021-08-21 17:39:00,1320,"신산로5길, 일도이동, 제주시, 제주특별자치도, 63272, 대한민국"
46100124,20210821181000,126.533624,33.510686,2021-08-21 18:10:00,3568,"신산로5길, 일도이동, 제주시, 제주특별자치도, 63272, 대한민국"
46100124,20210821200800,126.27447,33.223116,2021-08-21 20:08:00,572913,"상모와우로, 상모리, 서귀포시, 제주특별자치도, 63510, 대한민국"
46100124,20210828114400,126.362811,33.23513,2021-08-28 11:44:00,4770,"쉬멍놀멍, 49-5, 난드르로, 소기왓, 대평리, 서귀포시, 제주특별자치도, 63538, 대한민국"
46100124,20210828140000,126.589063,33.289203,2021-08-28 14:00:00,4262,"토평공단로, 상효동, 서귀포시, 제주특별자치도, 63603, 대한민국"
46100124,20210828152300,126.58085,33.301015,2021-08-28 15:23:00,1452,"돈내코유원지, 배남골로, 상효동, 서귀포시, 제주특별자치도, 63603, 대한민국"
46100124,20210828155700,126.589285,33.267822,2021-08-28 15:57:00,2898,"이조삼계탕, 7740, 중산간동로, 토평동, 서귀포시, 제주특별자치도, 63603, 대한민국"
4610012a,20210814144930,126.629405,33.440156,2021-08-14 14:49:30,3794,"제주절물자연휴양림, 명림로, 제주시, 제주특별자치도, 63327, 대한민국"
4610012a,20210814164230,126.462646,33.357629,2021-08-14 16:42:30,2484,"1100로, 서귀포시, 제주특별자치도, 63551, 대한민국"
4610012a,20210814185830,126.48236,33.485769,2021-08-14 18:58:30,588960,"원노형4길, 노형동, 제주시, 제주특별자치도, 63082, 대한민국"
4610012a,20210821153430,126.561889,33.250165,2021-08-21 15:34:30,2670,"동산다방, 2, 중앙로62번길, 서귀동, 서귀포시, 제주특별자치도, 63590, 대한민국"
4610012a,20210821172830,126.424058,33.242126,2021-08-21 17:28:30,624840,"제주부영호텔앤리조트, 222, 중문관광로, 서귀포시, 제주특별자치도, 63545, 대한민국"
4610012c,20210807110830,126.898914,33.439881,2021-08-07 11:08:30,21660,"제주커피박물관, 89-17, 서성일로1168번길, 성산읍, 서귀포시, 제주특별자치도, 63641, 대한민국"
4610012c,20210807174800,126.906639,33.406374,2021-08-07 17:48:00,3210,"황로알, 581, 환해장성로, 성산읍, 서귀포시, 제주특별자치도, 63641, 대한민국"
4610012c,20210807194330,126.791113,33.305909,2021-08-07 19:43:30,574532,"일주동로, 서귀포시, 제주특별자치도, 63629, 대한민국"
4610012c,20210814115100,126.925647,33.43366,2021-08-14 11:51:00,9362,"신양리, 서귀포시, 제주특별자치도, 63641, 대한민국"
4610012c,20210814153800,126.518653,33.498328,2021-08-14 15:38:00,3772,"서사로24길, 오라일동, 제주시, 제주특별자치도, 63183, 대한민국"
4610012c,20210814171830,126.486077,33.502792,2021-08-14 17:18:30,3507,"도두이동, 제주시, 제주특별자치도, 63115, 대한민국"
4610012c,20210814193530,126.551218,33.263682,2021-08-14 19:35:30,3120,"중산간동로, 서홍동, 서귀포시, 제주특별자치도, 63584, 대한민국"
4610012c,20210814212800,126.660696,33.274667,2021-08-14 21:28:00,559218,"위미가정의원, 올레길5 (Ollegil 5), 위미리, 서귀포시, 제주특별자치도, 63611, 대한민국"
4610012c,20210821094800,126.414626,33.244888,2021-08-21 09:48:00,2235,"퍼시픽랜드 1주차장, 154-17, 중문관광로, 서귀포시, 제주특별자치도, 63535, 대한민국"
4610012c,20210821103600,126.418469,33.253081,2021-08-21 10:36:00,3685,"천제연로, 푸른중문주공아파트, 서귀포시, 제주특별자치도, 63545, 대한민국"
4610012c,20210821115300,126.458364,33.243611,2021-08-21 11:53:00,5462,"올레길 8코스(월평-대평 올레), 월평동, 서귀포시, 제주특별자치도, 63535, 대한민국"
4610012c,20210821140600,126.701825,33.273553,2021-08-21 14:06:00,591205,"금호 제주 리조트, 태위로510번길, 남원리, 서귀포시, 제주특별자치도, 63621, 대한민국"
4610012c,20210828111630,126.49209,33.48827,2021-08-28 11:16:30,2295,"은남2길, 제주시, 제주특별자치도, 63122, 대한민국"
4610012c,20210828121430,126.476592,33.509097,2021-08-28 12:14:30,5215,"도두일동, 제주시, 제주특별자치도, 63112, 대한민국"
4610012d,20210807112930,126.453079,33.450912,2021-08-07 11:29:30,2736,"해안동, 광령리, 제주시, 제주특별자치도, 63062, 대한민국"
4610012d,20210807124330,126.333231,33.410827,2021-08-07 12:43:30,4485,"어음리, 제주시, 제주특별자치도, 63039, 대한민국"
4610012d,20210807150200,126.407969,33.248463,2021-08-07 15:02:00,5042,"중문관광로72번길, 서귀포시, 제주특별자치도, 63535, 대한민국"
4610012d,20210807165600,126.562292,33.250114,2021-08-07 16:56:00,2269,"외인다방, 11, 중앙로62번길, 서귀동, 서귀포시, 제주특별자치도, 63590, 대한민국"
4610012d,20210807180700,126.407763,33.248527,2021-08-07 18:07:00,576984,"중문관광로72번길, 서귀포시, 제주특별자치도, 63535, 대한민국"
4610012d,20210814103930,126.493057,33.495922,2021-08-14 10:39:30,14032,"명주주택, 도령로, 제주시, 제주특별자치도, 63125, 대한민국"
4610012d,20210814145000,126.482095,33.486221,2021-08-14 14:50:00,5700,"노연로, 제주시, 제주특별자치도, 63082, 대한민국"
4610012d,20210814171030,126.54296,33.503057,2021-08-14 17:10:30,3309,"천수로8길, 일도이동, 제주시, 제주특별자치도, 63260, 대한민국"
4610012d,20210814183200,126.541268,33.487587,2021-08-14 18:32:00,3534,"간월동로3길, 아라이동, 제주시, 제주특별자치도, 63231, 대한민국"
4610012d,20210814194930,126.482367,33.486159,2021-08-14 19:49:30,577800,"노연로, 제주시, 제주특별자치도, 63082, 대한민국"
4610012d,20210821125100,126.416565,33.254875,2021-08-21 12:51:00,4497,"제주미향, 99, 천제연로, 서귀포시, 제주특별자치도, 63535, 대한민국"
4610012d,20210821154400,126.303232,33.227531,2021-08-21 15:44:00,3057,"스테이위드커피, 32, 형제해안로, 사계리, 서귀포시, 제주특별자치도, 63528, 대한민국"
4610012d,20210821170230,126.372851,33.236423,2021-08-21 17:02:30,582598,"예래로, 하예동, 소기왓, 대평리, 서귀포시, 제주특별자치도, 63537, 대한민국"
4610012d,20210828105530,126.492979,33.496125,2021-08-28 10:55:30,4124,"도령로, 제주시, 제주특별자치도, 63125, 대한민국"
4610012d,20210828134030,126.463755,33.478898,2021-08-28 13:40:30,3288,"우평로, 도평동, 제주시, 제주특별자치도, 63103, 대한민국"
4610012d,20210828145100,126.486798,33.490174,2021-08-28 14:51:00,1290,"도령로, 제주시, 제주특별자치도, 63081, 대한민국"
4610012d,20210828162300,126.423608,33.240912,2021-08-28 16:23:00,1839,"ICC제주국제컨벤션센터주차장, 올레길 8코스(월평-대평 올레), 월평동, 서귀포시, 제주특별자치도, 63535, 대한민국"
4610012d,20210828165800,126.415591,33.244769,2021-08-28 16:58:00,1229,"퍼시픽랜드 4주차장, 154-17, 중문관광로, 서귀포시, 제주특별자치도, 63535, 대한민국"
4610012d,20210828183530,126.563509,33.250463,2021-08-28 18:35:30,1770,"한국김밥거래소, 23, 중앙로62번길, 서귀동, 서귀포시, 제주특별자치도, 63590, 대한민국"
46100131,20210814121200,126.57503,33.514944,2021-08-14 12:12:00,2964,"화삼로1길, 화북일동, 제주시, 제주특별자치도, 63303, 대한민국"
46100131,20210814135730,126.778374,33.443381,2021-08-14 13:57:30,4329,"금백조로, 수산리, 제주시, 제주특별자치도, 63631, 대한민국"
46100131,20210814171800,126.491412,33.489213,2021-08-14 17:18:00,7590,"공영주차장, 은남1길, 제주시, 제주특별자치도, 63125, 대한민국"
46100131,20210814195930,126.50339,33.51586,2021-08-14 19:59:30,564981,"그림리조트, 서해안로, 용담삼동, 제주시, 제주특별자치도, 63156, 대한민국"
46100131,20210821101330,126.4093,33.254908,2021-08-21 10:13:30,4718,"올레길 8코스(월평-대평 올레), 색달동, 소기왓, 대평리, 서귀포시, 제주특별자치도, 63538, 대한민국"
46100131,20210821120600,126.434907,33.239746,2021-08-21 12:06:00,1218,"써니데이제주, 131, 대포로, 서귀포시, 제주특별자치도, 63540, 대한민국"
46100131,20210821123230,126.415585,33.244385,2021-08-21 12:32:30,6809,"퍼시픽랜드 4주차장, 154-17, 중문관광로, 서귀포시, 제주특별자치도, 63535, 대한민국"
46100131,20210821143230,126.413504,33.254925,2021-08-21 14:32:30,2489,"한국맥도날드(유)제주중문DT점, 38, 중문관광로, 서귀포시, 제주특별자치도, 63535, 대한민국"
46100131,20210821151830,126.412455,33.250407,2021-08-21 15:18:30,1498,"중문관광로110번길, 서귀포시, 제주특별자치도, 63535, 대한민국"
46100131,20210821180400,126.503484,33.515832,2021-08-21 18:04:00,578920,"서해안로, 용담삼동, 제주시, 제주특별자치도, 63156, 대한민국"
46100131,20210828120530,126.49866,33.488295,2021-08-28 12:05:30,1751,"선덕로3길, 오라삼동, 제주시, 제주특별자치도, 63122, 대한민국"
46100131,20210828132800,126.503251,33.515687,2021-08-28 13:28:00,8780,"서해안로, 용담삼동, 제주시, 제주특별자치도, 63156, 대한민국"
46100131,20210828165930,126.249652,33.217624,2021-08-28 16:59:30,3591,"돈방석모슬포8호점, 22-13, 하모항구로, 대정읍, 서귀포시, 제주특별자치도, 63507, 대한민국"
46100131,20210828180930,126.288382,33.204399,2021-08-28 18:09:30,3376,"최남단해안로, 대정읍, 서귀포시, 제주특별자치도, 63507, 대한민국"
46100131,20210828193830,126.371412,33.235872,2021-08-28 19:38:30,4065,"돈대박연탄깡통구이, 435, 예래로, 하예동, 소기왓, 대평리, 서귀포시, 제주특별자치도, 63537, 대한민국"
